[{"municipio":"ABEZAMES","latitud":41.625537,"longitud":-5.425556},{"municipio":"ALMEIDA DE SAYAGO","latitud":41.266208,"longitud":-6.075509},{"municipio":"ARCOS DE LA POLVOROSA","latitud":41.944105,"longitud":-5.698763},{"municipio":"ARGUJILLO","latitud":41.311744,"longitud":-5.587089},{"municipio":"AYOÓ DE VIDRIALES","latitud":42.130067,"longitud":-6.065707},{"municipio":"BELVER DE LOS MONTES","latitud":41.722693,"longitud":-5.452048},{"municipio":"BENAVENTE","latitud":42.001729,"longitud":-5.680069},{"municipio":"BRETOCINO","latitud":41.88379,"longitud":-5.754672},{"municipio":"BRIME DE SOG","latitud":42.061129,"longitud":-6.04653},{"municipio":"BURGANES DE VALVERDE","latitud":41.921624,"longitud":-5.782226},{"municipio":"CABAÑAS DE SAYAGO","latitud":41.333304,"longitud":-5.791677},{"municipio":"CAMARZANA DE TERA","latitud":41.995064,"longitud":-6.026896},{"municipio":"CAÑIZAL","latitud":41.167645,"longitud":-5.369248},{"municipio":"CARBELLINO","latitud":41.231962,"longitud":-6.146234},{"municipio":"CASASECA DE CAMPEÁN","latitud":41.374446,"longitud":-5.74561},{"municipio":"EL PEGO","latitud":41.333303,"longitud":-5.466657},{"municipio":"ENTRALA","latitud":41.429612,"longitud":-5.756791},{"municipio":"FARAMONTANOS DE TÁBARA","latitud":41.834747,"longitud":-5.888643},{"municipio":"FIGUERUELA DE ARRIBA","latitud":41.868799,"longitud":-6.445423},{"municipio":"FRESNO DE LA POLVOROSA","latitud":42.08291,"longitud":-5.76932},{"municipio":"FRESNO DE SAYAGO","latitud":41.318667,"longitud":-5.971441},{"municipio":"FUENTELAPEÑA","latitud":41.253567,"longitud":-5.382496},{"municipio":"GALLEGOS DEL RÍO","latitud":41.735192,"longitud":-6.174306},{"municipio":"GAMONES","latitud":41.467828,"longitud":-6.179007},{"municipio":"GRANJA DE MORERUELA","latitud":41.809421,"longitud":-5.738842},{"municipio":"GRANUCILLO","latitud":42.050505,"longitud":-5.928251},{"municipio":"GUARRATE","latitud":41.289265,"longitud":-5.441114},{"municipio":"HERMISENDE","latitud":41.969934,"longitud":-6.893091},{"municipio":"JAMBRINA","latitud":41.393734,"longitud":-5.664614},{"municipio":"LUBIÁN","latitud":42.03546,"longitud":-6.906032},{"municipio":"LUELMO","latitud":41.439721,"longitud":-6.13474},{"municipio":"MAIRE DE CASTROPONCE","latitud":42.111803,"longitud":-5.78479},{"municipio":"MANZANAL DE ARRIBA","latitud":41.992066,"longitud":-6.440134},{"municipio":"MATILLA DE ARZÓN","latitud":42.106173,"longitud":-5.64214},{"municipio":"MATILLA LA SECA","latitud":41.578904,"longitud":-5.500276},{"municipio":"MAYALDE","latitud":41.250974,"longitud":-5.797714},{"municipio":"MICERECES DE TERA","latitud":41.989068,"longitud":-5.872077},{"municipio":"MOLACILLOS","latitud":41.582699,"longitud":-5.66014},{"municipio":"MOLEZUELAS DE LA CARBALLEDA","latitud":42.081759,"longitud":-6.186415},{"municipio":"MONTAMARTA","latitud":41.648318,"longitud":-5.805487},{"municipio":"MORALEJA DEL VINO","latitud":41.462369,"longitud":-5.656529},{"municipio":"MORALES DE REY","latitud":42.066758,"longitud":-5.785538},{"municipio":"MORALES DE VALVERDE","latitud":41.940225,"longitud":-5.887734},{"municipio":"MORALES DEL VINO","latitud":41.446216,"longitud":-5.730921},{"municipio":"MORERUELA DE LOS INFANZONES","latitud":41.631706,"longitud":-5.705851},{"municipio":"PAJARES DE LA LAMPREANA","latitud":41.716097,"longitud":-5.696108},{"municipio":"PELEAGONZALO","latitud":41.481571,"longitud":-5.482456},{"municipio":"PEQUE","latitud":42.072832,"longitud":-6.275639},{"municipio":"PÍAS","latitud":42.085751,"longitud":-6.99868},{"municipio":"PINO DEL ORO","latitud":41.576952,"longitud":-6.121489},{"municipio":"PUEBLA DE SANABRIA","latitud":42.054951,"longitud":-6.634393},{"municipio":"PUEBLICA DE VALVERDE","latitud":41.917939,"longitud":-5.900112},{"municipio":"RÁBANO DE ALISTE","latitud":41.742251,"longitud":-6.432775},{"municipio":"RIONEGRO DEL PUENTE","latitud":42.005835,"longitud":-6.226713},{"municipio":"ROBLEDA-CERVANTES","latitud":42.083598,"longitud":-6.593745},{"municipio":"SAN CEBRIÁN DE CASTRO","latitud":41.706371,"longitud":-5.754891},{"municipio":"SAN PEDRO DE CEQUE","latitud":42.043789,"longitud":-6.072703},{"municipio":"SAN PEDRO DE LA NAVE-ALMENDRA","latitud":41.591479,"longitud":-5.921549},{"municipio":"SANTA CLARA DE AVEDILLO","latitud":41.338576,"longitud":-5.677898},{"municipio":"SANTA CRISTINA DE LA POLVOROSA","latitud":42.000921,"longitud":-5.714445},{"municipio":"SANTA CROYA DE TERA","latitud":41.983568,"longitud":-5.974788},{"municipio":"SANTA EUFEMIA DEL BARCO","latitud":41.678493,"longitud":-5.899538},{"municipio":"SANTA MARÍA DE VALVERDE","latitud":41.93514,"longitud":-5.935507},{"municipio":"SANTIBÁÑEZ DE TERA","latitud":41.98576,"longitud":-5.924556},{"municipio":"TREFACIO","latitud":42.122584,"longitud":-6.649728},{"municipio":"UÑA DE QUINTANA","latitud":42.086562,"longitud":-6.143883},{"municipio":"VALCABADO","latitud":41.548464,"longitud":-5.748651},{"municipio":"VIDAYANES","latitud":41.909591,"longitud":-5.574331},{"municipio":"VIDEMALA","latitud":41.612033,"longitud":-6.040129},{"municipio":"VILLAFERRUEÑA","latitud":42.098723,"longitud":-5.858886},{"municipio":"VILLALAZÁN","latitud":41.494172,"longitud":-5.588951},{"municipio":"VILLALONSO","latitud":41.596195,"longitud":-5.297577},{"municipio":"VILLALPANDO","latitud":41.864879,"longitud":-5.414703},{"municipio":"VILLARDIEGUA DE LA RIBERA","latitud":41.53635,"longitud":-6.182029},{"municipio":"VILLÁRDIGA","latitud":41.818767,"longitud":-5.465643},{"municipio":"VILLARDONDIEGO","latitud":41.584417,"longitud":-5.378432},{"municipio":"VILLASECO DEL PAN","latitud":41.468348,"longitud":-5.964502},{"municipio":"VILLAVEZA DEL AGUA","latitud":41.918902,"longitud":-5.67901},{"municipio":"ZAMORA","latitud":41.49914,"longitud":-5.754948},{"municipio":"RUCANDIO","latitud":42.750873,"longitud":-3.542017},{"municipio":"SALAS DE BUREBA","latitud":42.69219,"longitud":-3.473753},{"municipio":"SALDAÑA DE BURGOS","latitud":42.2575,"longitud":-3.683263},{"municipio":"SAN VICENTE DEL VALLE","latitud":42.336869,"longitud":-3.161841},{"municipio":"SANTA CRUZ DE LA SALCEDA","latitud":41.594866,"longitud":-3.594931},{"municipio":"SANTA GADEA DEL CID","latitud":42.715135,"longitud":-3.058201},{"municipio":"SANTA INÉS","latitud":42.040327,"longitud":-3.702984},{"municipio":"SANTA MARÍA DEL CAMPO","latitud":42.131551,"longitud":-3.975927},{"municipio":"SANTA MARÍA DEL MERCADILLO","latitud":41.860028,"longitud":-3.559958},{"municipio":"SANTA OLALLA DE BUREBA","latitud":42.471741,"longitud":-3.438989},{"municipio":"SANTO DOMINGO DE SILOS","latitud":41.962906,"longitud":-3.417637},{"municipio":"SARGENTES DE LA LORA","latitud":42.769086,"longitud":-3.874035},{"municipio":"SOTILLO DE LA RIBERA","latitud":41.776969,"longitud":-3.824946},{"municipio":"TAMARÓN","latitud":42.272819,"longitud":-3.990838},{"municipio":"TINIEBLAS DE LA SIERRA","latitud":42.173398,"longitud":-3.362716},{"municipio":"TORDÓMAR","latitud":42.044611,"longitud":-3.867057},{"municipio":"TOSANTOS","latitud":42.414224,"longitud":-3.243166},{"municipio":"VADOCONDES","latitud":41.639645,"longitud":-3.572469},{"municipio":"VALDEANDE","latitud":41.832749,"longitud":-3.528794},{"municipio":"VALLE DE LAS NAVAS","latitud":42.452602,"longitud":-3.637037},{"municipio":"VALLE DE LOSA","latitud":42.992749,"longitud":-3.244623},{"municipio":"VALLE DE MENA","latitud":43.099086,"longitud":-3.280765},{"municipio":"VALLE DE SEDANO","latitud":42.716832,"longitud":-3.749952},{"municipio":"VILLAGALIJO","latitud":42.34853,"longitud":-3.192527},{"municipio":"VILLALBA DE DUERO","latitud":41.682696,"longitud":-3.743865},{"municipio":"VILLAMAYOR DE TREVIÑO","latitud":42.459856,"longitud":-4.119665},{"municipio":"VILLAMBISTIA","latitud":42.404908,"longitud":-3.261358},{"municipio":"VILLAMEDIANILLA","latitud":42.161056,"longitud":-4.145551},{"municipio":"VILLAMIEL DE LA SIERRA","latitud":42.19302,"longitud":-3.419146},{"municipio":"VILLANGÓMEZ","latitud":42.180829,"longitud":-3.772953},{"municipio":"VILLANUEVA DE ARGAÑO","latitud":42.3807,"longitud":-3.933011},{"municipio":"VILLANUEVA DE GUMIEL","latitud":41.737686,"longitud":-3.626503},{"municipio":"VILLANUEVA DE TEBA","latitud":42.649823,"longitud":-3.16417},{"municipio":"VILLAVERDE-MOGINA","latitud":42.161528,"longitud":-4.04902},{"municipio":"ZARZOSA DE RÍO PISUERGA","latitud":42.536209,"longitud":-4.26807},{"municipio":"ZAZUAR","latitud":41.695618,"longitud":-3.555287},{"municipio":"ALGADEFE","latitud":42.218458,"longitud":-5.583459},{"municipio":"ALMANZA","latitud":42.658876,"longitud":-5.035873},{"municipio":"BALBOA","latitud":42.706199,"longitud":-6.920859},{"municipio":"BOCA DE HUÉRGANO","latitud":42.972363,"longitud":-4.925394},{"municipio":"BRAZUELO","latitud":42.497704,"longitud":-6.156993},{"municipio":"CABREROS DEL RÍO","latitud":42.402403,"longitud":-5.544824},{"municipio":"CAMPAZAS","latitud":42.141933,"longitud":-5.492976},{"municipio":"CÁRMENES","latitud":42.959636,"longitud":-5.572945},{"municipio":"CEA","latitud":42.463411,"longitud":-5.01311},{"municipio":"CEBRONES DEL RÍO","latitud":42.257875,"longitud":-5.825095},{"municipio":"CIMANES DEL TEJAR","latitud":42.618004,"longitud":-5.806214},{"municipio":"CISTIERNA","latitud":42.803152,"longitud":-5.124368},{"municipio":"CORULLÓN","latitud":42.578058,"longitud":-6.819351},{"municipio":"CUADROS","latitud":42.71095,"longitud":-5.638963},{"municipio":"CUBILLOS DEL SIL","latitud":42.624618,"longitud":-6.564946},{"municipio":"DESTRIANA","latitud":42.325936,"longitud":-6.094235},{"municipio":"FRESNO DE LA VEGA","latitud":42.344061,"longitud":-5.536156},{"municipio":"FUENTES DE CARBAJAL","latitud":42.178068,"longitud":-5.445966},{"municipio":"IGÜEÑA","latitud":42.727854,"longitud":-6.278644},{"municipio":"LA ERCINA","latitud":42.812913,"longitud":-5.217414},{"municipio":"LLAMAS DE LA RIBERA","latitud":42.635631,"longitud":-5.825422},{"municipio":"MAGAZ DE CEPEDA","latitud":42.5396,"longitud":-6.072041},{"municipio":"MARAÑA","latitud":43.048919,"longitud":-5.175805},{"municipio":"MATANZA","latitud":42.239435,"longitud":-5.375621},{"municipio":"MOLINASECA","latitud":42.537016,"longitud":-6.51953},{"municipio":"POBLADURA DE PELAYO GARCÍA","latitud":42.305983,"longitud":-5.685669},{"municipio":"PONFERRADA","latitud":42.547681,"longitud":-6.5973},{"municipio":"PRIARANZA DEL BIERZO","latitud":42.509054,"longitud":-6.671803},{"municipio":"PRIORO","latitud":42.893396,"longitud":-4.962127},{"municipio":"QUINTANA DEL CASTILLO","latitud":42.661303,"longitud":-6.045955},{"municipio":"QUINTANA DEL MARCO","latitud":42.206083,"longitud":-5.851007},{"municipio":"REYERO","latitud":42.947642,"longitud":-5.197975},{"municipio":"RIEGO DE LA VEGA","latitud":42.388788,"longitud":-5.982322},{"municipio":"SAN ANDRÉS DEL RABANEDO","latitud":42.611173,"longitud":-5.615482},{"municipio":"SAN CRISTÓBAL DE LA POLANTERA","latitud":42.390533,"longitud":-5.907452},{"municipio":"SANTA MARÍA DEL MONTE DE CEA","latitud":42.49171,"longitud":-5.116839},{"municipio":"SANTA MARÍA DEL PÁRAMO","latitud":42.353555,"longitud":-5.749249},{"municipio":"SANTIAGO MILLAS","latitud":42.381792,"longitud":-6.105991},{"municipio":"SANTOVENIA DE LA VALDONCINA","latitud":42.543049,"longitud":-5.621404},{"municipio":"TORAL DE LOS GUZMANES","latitud":42.244307,"longitud":-5.567303},{"municipio":"TORAL DE LOS VADOS","latitud":42.580225,"longitud":-6.759088},{"municipio":"VALDEFUENTES DEL PÁRAMO","latitud":42.322012,"longitud":-5.831605},{"municipio":"VALDELUGUEROS","latitud":42.973928,"longitud":-5.412899},{"municipio":"VALDEPIÉLAGO","latitud":42.869327,"longitud":-5.398413},{"municipio":"VALDERAS","latitud":42.077659,"longitud":-5.445728},{"municipio":"VALDERREY","latitud":42.392107,"longitud":-6.020625},{"municipio":"VALDERRUEDA","latitud":42.815753,"longitud":-4.947438},{"municipio":"VALDEVIMBRE","latitud":42.41962,"longitud":-5.620023},{"municipio":"VALVERDE DE LA VIRGEN","latitud":42.56918,"longitud":-5.682925},{"municipio":"VALVERDE-ENRIQUE","latitud":42.303853,"longitud":-5.299186},{"municipio":"VEGA DE INFANZONES","latitud":42.480981,"longitud":-5.534381},{"municipio":"VEGA DE VALCARCE","latitud":42.665251,"longitud":-6.947233},{"municipio":"VILLABLINO","latitud":42.939834,"longitud":-6.317},{"municipio":"VILLABRAZ","latitud":42.246274,"longitud":-5.444359},{"municipio":"VILLAFRANCA DEL BIERZO","latitud":42.605994,"longitud":-6.810821},{"municipio":"VILLAGATÓN","latitud":42.634792,"longitud":-6.161846},{"municipio":"VILLAMANDOS","latitud":42.179336,"longitud":-5.593124},{"municipio":"VILLAMANÍN","latitud":42.937028,"longitud":-5.655952},{"municipio":"VILLAMOL","latitud":42.428552,"longitud":-5.04907},{"municipio":"VILLAMORATIEL DE LAS MATAS","latitud":42.39626,"longitud":-5.303165},{"municipio":"VILLANUEVA DE LAS MANZANAS","latitud":42.471355,"longitud":-5.480471},{"municipio":"VILLAOBISPO DE OTERO","latitud":42.499988,"longitud":-6.058563},{"municipio":"VILLAORNATE Y CASTRO","latitud":42.184812,"longitud":-5.549757},{"municipio":"VILLAQUILAMBRE","latitud":42.646313,"longitud":-5.55877},{"municipio":"VILLAZALA","latitud":42.361205,"longitud":-5.856193},{"municipio":"VILLAZANZO DE VALDERADUEY","latitud":42.534941,"longitud":-4.964871},{"municipio":"AMPUDIA","latitud":41.916286,"longitud":-4.781006},{"municipio":"AMUSCO","latitud":42.173116,"longitud":-4.470261},{"municipio":"ANTIGÜEDAD","latitud":41.945944,"longitud":-4.1183},{"municipio":"ARCONADA","latitud":42.331152,"longitud":-4.497386},{"municipio":"ASTUDILLO","latitud":42.192786,"longitud":-4.29215},{"municipio":"AUTILLO DE CAMPOS","latitud":42.088253,"longitud":-4.831322},{"municipio":"AYUELA","latitud":42.629231,"longitud":-4.658231},{"municipio":"BERZOSILLA","latitud":42.781671,"longitud":-4.036848},{"municipio":"BOADA DE CAMPOS","latitud":41.988383,"longitud":-4.876984},{"municipio":"BOADILLA DE RIOSECO","latitud":42.178273,"longitud":-4.968525},{"municipio":"BUENAVISTA DE VALDAVIA","latitud":42.640466,"longitud":-4.614313},{"municipio":"BUSTILLO DE LA VEGA","latitud":42.45662,"longitud":-4.738633},{"municipio":"CALZADA DE LOS MOLINOS","latitud":42.327402,"longitud":-4.650003},{"municipio":"CARRIÓN DE LOS CONDES","latitud":42.340728,"longitud":-4.604464},{"municipio":"CASTRILLO DE DON JUAN","latitud":41.791007,"longitud":-4.070392},{"municipio":"CASTRILLO DE ONIELO","latitud":41.85775,"longitud":-4.302176},{"municipio":"CEVICO NAVERO","latitud":41.861218,"longitud":-4.183933},{"municipio":"CISNEROS","latitud":42.220544,"longitud":-4.856928},{"municipio":"CONGOSTO DE VALDAVIA","latitud":42.714604,"longitud":-4.634857},{"municipio":"DEHESA DE MONTEJO","latitud":42.819042,"longitud":-4.509346},{"municipio":"DEHESA DE ROMANOS","latitud":42.641545,"longitud":-4.4364},{"municipio":"FRESNO DEL RÍO","latitud":42.680807,"longitud":-4.817772},{"municipio":"FUENTES DE NAVA","latitud":42.083259,"longitud":-4.781862},{"municipio":"FUENTES DE VALDEPERO","latitud":42.071408,"longitud":-4.500232},{"municipio":"GRIJOTA","latitud":42.053985,"longitud":-4.581755},{"municipio":"GUAZA DE CAMPOS","latitud":42.135731,"longitud":-4.90823},{"municipio":"HERRERA DE PISUERGA","latitud":42.594781,"longitud":-4.330248},{"municipio":"HERRERA DE VALDECAÑAS","latitud":42.048296,"longitud":-4.19941},{"municipio":"HONTORIA DE CERRATO","latitud":41.911204,"longitud":-4.443069},{"municipio":"HUSILLOS","latitud":42.090418,"longitud":-4.52704},{"municipio":"LA PERNÍA","latitud":42.966674,"longitud":-4.495585},{"municipio":"LA PUEBLA DE VALDAVIA","latitud":42.675568,"longitud":-4.609266},{"municipio":"LAGARTOS","latitud":42.405844,"longitud":-4.903725},{"municipio":"LEDIGOS","latitud":42.35389,"longitud":-4.864286},{"municipio":"NOGAL DE LAS HUERTAS","latitud":42.393314,"longitud":-4.641243},{"municipio":"OLEA DE BOEDO","latitud":42.608643,"longitud":-4.448945},{"municipio":"OSORNILLO","latitud":42.369498,"longitud":-4.292124},{"municipio":"PALENCIA","latitud":42.007837,"longitud":-4.534601},{"municipio":"PAREDES DE NAVA","latitud":42.152818,"longitud":-4.694164},{"municipio":"RENEDO DE LA VEGA","latitud":42.453894,"longitud":-4.702426},{"municipio":"ALBORNOS","latitud":40.835453,"longitud":-4.886271},{"municipio":"ARENAS DE SAN PEDRO","latitud":40.208689,"longitud":-5.091146},{"municipio":"BARROMÁN","latitud":41.06568,"longitud":-4.931357},{"municipio":"BERNUY-ZAPARDIEL","latitud":40.976025,"longitud":-4.943348},{"municipio":"BLASCOMILLÁN","latitud":40.801653,"longitud":-5.0887269999999996},{"municipio":"BLASCONUÑO DE MATACABRAS","latitud":41.123872,"longitud":-4.989882},{"municipio":"BURGOHONDO","latitud":40.416143,"longitud":-4.785928},{"municipio":"CABEZAS DE ALAMBRE","latitud":40.943158,"longitud":-4.840579},{"municipio":"CABIZUELA","latitud":40.90119,"longitud":-4.801294},{"municipio":"CASAVIEJA","latitud":40.279297,"longitud":-4.765808},{"municipio":"CASILLAS","latitud":40.323204,"longitud":-4.572334},{"municipio":"CONSTANZANA","latitud":40.938421,"longitud":-4.874063},{"municipio":"DIEGO DEL CARPIO","latitud":40.664815,"longitud":-5.326063},{"municipio":"DONJIMENO","latitud":40.960049,"longitud":-4.844981},{"municipio":"DONVIDAS","latitud":41.08864,"longitud":-4.804724},{"municipio":"EL ARENAL","latitud":40.265212,"longitud":-5.086854},{"municipio":"EL BARCO DE ÁVILA","latitud":40.355763,"longitud":-5.527042},{"municipio":"EL MIRÓN","latitud":40.531673,"longitud":-5.405187},{"municipio":"EL OSO","latitud":40.842842,"longitud":-4.77127},{"municipio":"FONTIVEROS","latitud":40.930272,"longitud":-4.967436},{"municipio":"GAVILANES","latitud":40.276857,"longitud":-4.85384},{"municipio":"GIL GARCÍA","latitud":40.297222,"longitud":-5.59615},{"municipio":"GILBUENA","latitud":40.414288,"longitud":-5.608838},{"municipio":"GIMIALCÓN","latitud":40.877314,"longitud":-5.122944},{"municipio":"GOTARRENDURA","latitud":40.827136,"longitud":-4.739094},{"municipio":"HOYOS DEL COLLADO","latitud":40.358702,"longitud":-5.199375},{"municipio":"LA ADRADA","latitud":40.301364,"longitud":-4.63746},{"municipio":"LA CARRERA","latitud":40.347336,"longitud":-5.555148},{"municipio":"LA HORCAJADA","latitud":40.435305,"longitud":-5.466432},{"municipio":"LA SERRADA","latitud":40.631473,"longitud":-4.79268},{"municipio":"LANZAHÍTA","latitud":40.203679,"longitud":-4.936954},{"municipio":"LAS BERLANAS","latitud":40.803561,"longitud":-4.761169},{"municipio":"MAMBLAS","latitud":41.019192,"longitud":-5.009849},{"municipio":"MANCERA DE ARRIBA","latitud":40.790929,"longitud":-5.148302},{"municipio":"MANJABÁLAGO Y ORTIGOSA DE RIOALMAR","latitud":40.665623,"longitud":-5.077413},{"municipio":"MARLÍN","latitud":40.712762,"longitud":-4.829378},{"municipio":"MEDIANA DE VOLTOYA","latitud":40.70062,"longitud":-4.5626},{"municipio":"MESEGAR DE CORNEJA","latitud":40.501572,"longitud":-5.301507},{"municipio":"MIJARES","latitud":40.297768,"longitud":-4.838469},{"municipio":"MOMBELTRÁN","latitud":40.260166,"longitud":-5.017888},{"municipio":"MUÑICO","latitud":40.706625,"longitud":-5.027907},{"municipio":"MUÑOGALINDO","latitud":40.603862,"longitud":-4.901397},{"municipio":"NARRILLOS DEL REBOLLAR","latitud":40.66492,"longitud":-4.965875},{"municipio":"NARROS DE SALDUEÑA","latitud":40.874873,"longitud":-4.869506},{"municipio":"NAVALMORAL","latitud":40.459867,"longitud":-4.763238},{"municipio":"NAVALPERAL DE TORMES","latitud":40.352879,"longitud":-5.30008},{"municipio":"NAVALUENGA","latitud":40.412733,"longitud":-4.708148},{"municipio":"NAVAQUESERA","latitud":40.425026,"longitud":-4.908764},{"municipio":"ORBITA","latitud":40.998381,"longitud":-4.647247},{"municipio":"PAJARES DE ADAJA","latitud":40.923697,"longitud":-4.640356},{"municipio":"PEGUERINOS","latitud":40.626523,"longitud":-4.233316},{"municipio":"PEÑALBA DE ÁVILA","latitud":40.771991,"longitud":-4.747349},{"municipio":"PIEDRALAVES","latitud":40.317684,"longitud":-4.6983},{"municipio":"PUERTO CASTILLA","latitud":40.289822,"longitud":-5.629439},{"municipio":"SALVADIÓS","latitud":40.876831,"longitud":-5.096168},{"municipio":"SAN BARTOLOMÉ DE BÉJAR","latitud":40.408286,"longitud":-5.662693},{"municipio":"SAN BARTOLOMÉ DE CORNEJA","latitud":40.492875,"longitud":-5.385253},{"municipio":"SAN BARTOLOMÉ DE PINARES","latitud":40.543187,"longitud":-4.540079},{"municipio":"SAN GARCÍA DE INGELMOS","latitud":40.769932,"longitud":-5.11618},{"municipio":"SAN JUAN DE GREDOS","latitud":40.360573,"longitud":-5.251496},{"municipio":"SAN JUAN DE LA ENCINILLA","latitud":40.828819,"longitud":-4.839691},{"municipio":"SAN JUAN DEL OLMO","latitud":40.653173,"longitud":-5.05025},{"municipio":"SAN MARTÍN DE LA VEGA DEL ALBERCHE","latitud":40.429712,"longitud":-5.156375},{"municipio":"SAN MARTÍN DEL PIMPOLLAR","latitud":40.368438,"longitud":-5.056128},{"municipio":"SAN PASCUAL","latitud":40.882395,"longitud":-4.756622},{"municipio":"SANCHORREJA","latitud":40.664841,"longitud":-4.914851},{"municipio":"SANTA CRUZ DE PINARES","latitud":40.542215,"longitud":-4.579379},{"municipio":"SANTA CRUZ DEL VALLE","latitud":40.250843,"longitud":-5.003373},{"municipio":"SANTO DOMINGO DE LAS POSADAS","latitud":40.812408,"longitud":-4.633024},{"municipio":"SERRANILLOS","latitud":40.337343,"longitud":-4.911176},{"municipio":"SIGERES","latitud":40.799321,"longitud":-4.932627},{"municipio":"SINLABAJOS","latitud":41.077176,"longitud":-4.831955},{"municipio":"VALDECASA","latitud":40.659187,"longitud":-5.011577},{"municipio":"VILLAFLOR","latitud":40.758946,"longitud":-4.873765},{"municipio":"VILLANUEVA DEL ACERAL","latitud":41.041601,"longitud":-4.853025},{"municipio":"VILLANUEVA DEL CAMPILLO","latitud":40.578337,"longitud":-5.179902},{"municipio":"VITA","latitud":40.812382,"longitud":-5.005955},{"municipio":"ZAPARDIEL DE LA RIBERA","latitud":40.354693,"longitud":-5.327859},{"municipio":"ABAJAS","latitud":42.623249,"longitud":-3.581763},{"municipio":"AGUAS CÁNDIDAS","latitud":42.717274,"longitud":-3.504476},{"municipio":"ALCOCERO DE MOLA","latitud":42.473768,"longitud":-3.358359},{"municipio":"ALFOZ DE BRICIA","latitud":42.906017,"longitud":-3.847067},{"municipio":"ALTABLE","latitud":42.603083,"longitud":-3.078105},{"municipio":"ARCOS","latitud":42.264695,"longitud":-3.756698},{"municipio":"ARENILLAS DE RIOPISUERGA","latitud":42.35737,"longitud":-4.233808},{"municipio":"ARRAYA DE OCA","latitud":42.415773,"longitud":-3.398138},{"municipio":"BAHABÓN DE ESGUEVA","latitud":41.861384,"longitud":-3.728434},{"municipio":"BAÑUELOS DE BUREBA","latitud":42.500548,"longitud":-3.281861},{"municipio":"BARBADILLO DEL MERCADO","latitud":42.039213,"longitud":-3.358933},{"municipio":"BARBADILLO DEL PEZ","latitud":42.118805,"longitud":-3.227823},{"municipio":"BARRIO DE MUÑÓ","latitud":42.174503,"longitud":-4.008068},{"municipio":"BASCONCILLOS DEL TOZO","latitud":42.701617,"longitud":-3.990265},{"municipio":"BASCUÑANA","latitud":42.424312,"longitud":-3.082748},{"municipio":"BELBIMBRE","latitud":42.168607,"longitud":-4.012817},{"municipio":"BERZOSA DE BUREBA","latitud":42.627,"longitud":-3.266343},{"municipio":"BUNIEL","latitud":42.31063,"longitud":-3.821557},{"municipio":"CABAÑES DE ESGUEVA","latitud":41.831291,"longitud":-3.784695},{"municipio":"CALERUEGA","latitud":41.825032,"longitud":-3.487403},{"municipio":"CANICOSA DE LA SIERRA","latitud":41.937898,"longitud":-3.04051},{"municipio":"CARAZO","latitud":41.967561,"longitud":-3.356685},{"municipio":"CARDEÑAJIMENO","latitud":42.330584,"longitud":-3.619723},{"municipio":"CARRIAS","latitud":42.48163,"longitud":-3.284185},{"municipio":"CASCAJARES DE BUREBA","latitud":42.677838,"longitud":-3.237474},{"municipio":"CASTRILLO MOTA DE JUDÍOS","latitud":42.307578,"longitud":-4.172776},{"municipio":"CAYUELA","latitud":42.272369,"longitud":-3.819544},{"municipio":"CELADA DEL CAMINO","latitud":42.263839,"longitud":-3.934014},{"municipio":"CILLAPERLATA","latitud":42.780866,"longitud":-3.357062},{"municipio":"FONTIOSO","latitud":41.943435,"longitud":-3.738642},{"municipio":"FRANDOVÍNEZ","latitud":42.309611,"longitud":-3.837924},{"municipio":"FRESNO DE RODILLA","latitud":42.418823,"longitud":-3.483545},{"municipio":"FUENTECÉN","latitud":41.628247,"longitud":-3.87023},{"municipio":"FUENTENEBRO","latitud":41.528413,"longitud":-3.753817},{"municipio":"GRIJALBA","latitud":42.429698,"longitud":-4.11852},{"municipio":"GUMIEL DE MERCADO","latitud":41.755824,"longitud":-3.802723},{"municipio":"HACINAS","latitud":41.985985,"longitud":-3.287554},{"municipio":"HAZA","latitud":41.621037,"longitud":-3.830592},{"municipio":"HONTORIA DEL PINAR","latitud":41.848031,"longitud":-3.164524},{"municipio":"HUÉRMECES","latitud":42.522613,"longitud":-3.771976},{"municipio":"IGLESIAS","latitud":42.298048,"longitud":-3.989414},{"municipio":"ITERO DEL CASTILLO","latitud":42.289284,"longitud":-4.242485},{"municipio":"JUNTA DE VILLALBA DE LOSA","latitud":42.935379,"longitud":-3.087829},{"municipio":"JURISDICCIÓN DE SAN ZADORNIL","latitud":42.841597,"longitud":-3.156766},{"municipio":"LA CUEVA DE ROA","latitud":41.666377,"longitud":-3.941951},{"municipio":"LAS QUINTANILLAS","latitud":42.372133,"longitud":-3.843807},{"municipio":"LERMA","latitud":42.02736,"longitud":-3.759314},{"municipio":"LOS ALTOS","latitud":42.807592,"longitud":-3.63302},{"municipio":"LOS AUSINES","latitud":42.225586,"longitud":-3.591431},{"municipio":"MAMBRILLAS DE LARA","latitud":42.095596,"longitud":-3.45962},{"municipio":"MECERREYES","latitud":42.095533,"longitud":-3.573897},{"municipio":"MEDINA DE POMAR","latitud":42.928523,"longitud":-3.487503},{"municipio":"MELGAR DE FERNAMENTAL","latitud":42.405445,"longitud":-4.24356},{"municipio":"MERINDAD DE MONTIJA","latitud":43.067273,"longitud":-3.470112},{"municipio":"MERINDAD DE RÍO UBIERNA","latitud":42.437085,"longitud":-3.680833},{"municipio":"MIRAVECHE","latitud":42.67318,"longitud":-3.200843},{"municipio":"MODÚBAR DE LA EMPAREDADA","latitud":42.257843,"longitud":-3.659977},{"municipio":"MONTORIO","latitud":42.584723,"longitud":-3.776397},{"municipio":"NAVA DE ROA","latitud":41.612643,"longitud":-3.963636},{"municipio":"OQUILLAS","latitud":41.830809,"longitud":-3.706049},{"municipio":"PADILLA DE ABAJO","latitud":42.408311,"longitud":-4.176777},{"municipio":"PADILLA DE ARRIBA","latitud":42.437948,"longitud":-4.193441},{"municipio":"PADRONES DE BUREBA","latitud":42.70499,"longitud":-3.532461},{"municipio":"PAMPLIEGA","latitud":42.206199,"longitud":-3.987979},{"municipio":"PARDILLA","latitud":41.552556,"longitud":-3.71057},{"municipio":"PARTIDO DE LA SIERRA EN TOBALINA","latitud":42.73341,"longitud":-3.254787},{"municipio":"PEDROSA DEL PÁRAMO","latitud":42.439456,"longitud":-3.976085},{"municipio":"PEDROSA DEL PRÍNCIPE","latitud":42.247876,"longitud":-4.198337},{"municipio":"PINEDA TRASMONTE","latitud":41.90976,"longitud":-3.69633},{"municipio":"PUENTEDURA","latitud":42.041902,"longitud":-3.582175},{"municipio":"QUINTANAÉLEZ","latitud":42.669814,"longitud":-3.299072},{"municipio":"QUINTANAORTUÑO","latitud":42.44962,"longitud":-3.681175},{"municipio":"QUINTANILLA DEL COCO","latitud":41.978721,"longitud":-3.515754},{"municipio":"QUINTANILLA VIVAR","latitud":42.412061,"longitud":-3.684864},{"municipio":"RÁBANOS","latitud":42.319106,"longitud":-3.269499},{"municipio":"REBOLLEDO DE LA TORRE","latitud":42.689305,"longitud":-4.226927},{"municipio":"REINOSO","latitud":42.508835,"longitud":-3.384181},{"municipio":"REVILLARRUZ","latitud":42.231556,"longitud":-3.653293},{"municipio":"ROJAS","latitud":42.5776,"longitud":-3.442423},{"municipio":"SAN ROMÁN DE LA CUBA","latitud":42.262953,"longitud":-4.857481},{"municipio":"SANTIBÁÑEZ DE ECLA","latitud":42.707615,"longitud":-4.374304},{"municipio":"TARIEGO DE CERRATO","latitud":41.904936,"longitud":-4.479144},{"municipio":"VALDE-UCIEZA","latitud":42.398462,"longitud":-4.575278},{"municipio":"VALLE DE CERRATO","latitud":41.879402,"longitud":-4.363428},{"municipio":"VERTAVILLO","latitud":41.832573,"longitud":-4.326836},{"municipio":"VILLACONANCIO","latitud":41.871743,"longitud":-4.223761},{"municipio":"VILLADA","latitud":42.248945,"longitud":-4.967837},{"municipio":"VILLAELES DE VALDAVIA","latitud":42.565319,"longitud":-4.584342},{"municipio":"VILLALOBÓN","latitud":42.029868,"longitud":-4.503893},{"municipio":"VILLALUENGA DE LA VEGA","latitud":42.5233,"longitud":-4.767277},{"municipio":"QUINTANAS DE GORMAZ","latitud":41.508125,"longitud":-2.975813},{"municipio":"REBOLLAR","latitud":41.913671,"longitud":-2.505113},{"municipio":"RECUERDA","latitud":41.475719,"longitud":-2.994772},{"municipio":"RENIEBLAS","latitud":41.821427,"longitud":-2.374987},{"municipio":"SANTA MARÍA DE HUERTA","latitud":41.2613,"longitud":-2.176743},{"municipio":"SORIA","latitud":41.763279,"longitud":-2.466248},{"municipio":"SOTILLO DEL RINCÓN","latitud":41.932333,"longitud":-2.60238},{"municipio":"TAJAHUERCE","latitud":41.741041,"longitud":-2.150749},{"municipio":"TAJUECO","latitud":41.536323,"longitud":-2.849461},{"municipio":"TORLENGUA","latitud":41.455366,"longitud":-2.163851},{"municipio":"VALDEAVELLANO DE TERA","latitud":41.939391,"longitud":-2.573951},{"municipio":"VALDENEBRO","latitud":41.572391,"longitud":-2.965497},{"municipio":"VELAMAZÁN","latitud":41.450548,"longitud":-2.699467},{"municipio":"VIANA DE DUERO","latitud":41.534014,"longitud":-2.461149},{"municipio":"VILLACIERVOS","latitud":41.764907,"longitud":-2.627552},{"municipio":"VILLAR DEL ALA","latitud":41.915081,"longitud":-2.56636},{"municipio":"VILLASECA DE ARCIEL","latitud":41.624243,"longitud":-2.161347},{"municipio":"VINUESA","latitud":41.911792,"longitud":-2.762725},{"municipio":"ALAEJOS","latitud":41.307568,"longitud":-5.216757},{"municipio":"ALDEA DE SAN MIGUEL","latitud":41.461157,"longitud":-4.618505},{"municipio":"ALMENARA DE ADAJA","latitud":41.214056,"longitud":-4.676157},{"municipio":"AMUSQUILLO","latitud":41.748584,"longitud":-4.302519},{"municipio":"ATAQUINES","latitud":41.181675,"longitud":-4.803735},{"municipio":"BAHABÓN","latitud":41.48134,"longitud":-4.282392},{"municipio":"BARRUELO DEL VALLE","latitud":41.672471,"longitud":-5.068676},{"municipio":"BERCERUELO","latitud":41.580409,"longitud":-5.033611},{"municipio":"BOBADILLA DEL CAMPO","latitud":41.20507,"longitud":-5.022552},{"municipio":"BOECILLO","latitud":41.540459,"longitud":-4.699397},{"municipio":"CABREROS DEL MONTE","latitud":41.84768,"longitud":-5.26801},{"municipio":"CAMPASPERO","latitud":41.491478,"longitud":-4.195033},{"municipio":"CARPIO","latitud":41.215092,"longitud":-5.11199},{"municipio":"CASTREJÓN DE TRABANCOS","latitud":41.251815,"longitud":-5.170484},{"municipio":"CASTRILLO DE DUERO","latitud":41.575542,"longitud":-4.015179},{"municipio":"CASTRILLO-TEJERIEGO","latitud":41.703585,"longitud":-4.370754},{"municipio":"CASTROBOL","latitud":42.136174,"longitud":-5.314957},{"municipio":"CEINOS DE CAMPOS","latitud":42.031639,"longitud":-5.151001},{"municipio":"CERVILLEGO DE LA CRUZ","latitud":41.186774,"longitud":-4.94959},{"municipio":"CIGALES","latitud":41.758128,"longitud":-4.699857},{"municipio":"CUENCA DE CAMPOS","latitud":42.057474,"longitud":-5.055907},{"municipio":"CURIEL DE DUERO","latitud":41.639944,"longitud":-4.099193},{"municipio":"ENCINAS DE ESGUEVA","latitud":41.756514,"longitud":-4.104413},{"municipio":"ESGUEVILLAS DE ESGUEVA","latitud":41.751634,"longitud":-4.379978},{"municipio":"LA PEDRAJA DE PORTILLO","latitud":41.472532,"longitud":-4.647134},{"municipio":"LA UNIÓN DE CAMPOS","latitud":42.075949,"longitud":-5.324877},{"municipio":"LAGUNA DE DUERO","latitud":41.583318,"longitud":-4.722149},{"municipio":"LANGAYO","latitud":41.570288,"longitud":-4.199649},{"municipio":"LLANO DE OLMEDO","latitud":41.268111,"longitud":-4.612954},{"municipio":"MAYORGA","latitud":42.16649,"longitud":-5.262508},{"municipio":"MEDINA DE RIOSECO","latitud":41.883071,"longitud":-5.043182},{"municipio":"MEGECES","latitud":41.407829,"longitud":-4.564194},{"municipio":"MELGAR DE ABAJO","latitud":42.244874,"longitud":-5.141655},{"municipio":"MOJADOS","latitud":41.432809,"longitud":-4.661593},{"municipio":"MONTEMAYOR DE PILILLA","latitud":41.507564,"longitud":-4.458115},{"municipio":"NAVA DEL REY","latitud":41.330492,"longitud":-5.081659},{"municipio":"OLMOS DE ESGUEVA","latitud":41.68761,"longitud":-4.520828},{"municipio":"PEDRAJAS DE SAN ESTEBAN","latitud":41.341869,"longitud":-4.583985},{"municipio":"PEDROSA DEL REY","latitud":41.555517,"longitud":-5.204443},{"municipio":"PEÑAFIEL","latitud":41.596451,"longitud":-4.118685},{"municipio":"PIÑEL DE ABAJO","latitud":41.67531,"longitud":-4.14655},{"municipio":"PORTILLO","latitud":41.479073,"longitud":-4.588062},{"municipio":"POZAL DE GALLINAS","latitud":41.317655,"longitud":-4.839642},{"municipio":"POZUELO DE LA ORDEN","latitud":41.822915,"longitud":-5.259261},{"municipio":"QUINTANILLA DE ONÉSIMO","latitud":41.625983,"longitud":-4.365341},{"municipio":"QUINTANILLA DE TRIGUEROS","latitud":41.853786,"longitud":-4.659283},{"municipio":"QUINTANILLA DEL MOLAR","latitud":41.989635,"longitud":-5.44962},{"municipio":"RENEDO DE ESGUEVA","latitud":41.654993,"longitud":-4.627667},{"municipio":"ROALES DE CAMPOS","latitud":42.030363,"longitud":-5.475452},{"municipio":"ROBLADILLO","latitud":41.607928,"longitud":-4.910004},{"municipio":"SAN CEBRIÁN DE MAZOTE","latitud":41.680875,"longitud":-5.147121},{"municipio":"SAN LLORENTE","latitud":41.686177,"longitud":-4.064678},{"municipio":"SAN MARTÍN DE VALVENÍ","latitud":41.753516,"longitud":-4.566199},{"municipio":"SAN SALVADOR","latitud":41.620959,"longitud":-5.088766},{"municipio":"SAN VICENTE DEL PALACIO","latitud":41.218675,"longitud":-4.852086},{"municipio":"SANTOVENIA DE PISUERGA","latitud":41.696355,"longitud":-4.691031},{"municipio":"TORRECILLA DE LA ABADESA","latitud":41.485726,"longitud":-5.08904},{"municipio":"TORRECILLA DE LA TORRE","latitud":41.665532,"longitud":-5.050257},{"municipio":"TORRELOBATÓN","latitud":41.649374,"longitud":-5.02538},{"municipio":"TORRESCÁRCELA","latitud":41.484833,"longitud":-4.319953},{"municipio":"VALDESTILLAS","latitud":41.475807,"longitud":-4.771542},{"municipio":"VALDUNQUILLO","latitud":42.039327,"longitud":-5.312196},{"municipio":"VALORIA LA BUENA","latitud":41.800538,"longitud":-4.530895},{"municipio":"VEGA DE RUIPONCE","latitud":42.189383,"longitud":-5.112883},{"municipio":"VEGA DE VALDETRONCO","latitud":41.593065,"longitud":-5.11389},{"municipio":"VELASCÁLVARO","latitud":41.230668,"longitud":-4.971654},{"municipio":"VENTOSA DE LA CUESTA","latitud":41.412759,"longitud":-4.831303},{"municipio":"VILLAFRADES DE CAMPOS","latitud":42.07853,"longitud":-4.971287},{"municipio":"VILLAFUERTE","latitud":41.732741,"longitud":-4.325369},{"municipio":"VILLALÁN DE CAMPOS","latitud":42.015225,"longitud":-5.235106},{"municipio":"VILLALÓN DE CAMPOS","latitud":42.098539,"longitud":-5.034294},{"municipio":"VILLANUEVA DE LA CONDESA","latitud":42.149559,"longitud":-5.094746},{"municipio":"VILLANUEVA DE LOS CABALLEROS","latitud":41.757954,"longitud":-5.246853},{"municipio":"VILLAVELLID","latitud":41.694126,"longitud":-5.278865},{"municipio":"VILLAVERDE DE MEDINA","latitud":41.305828,"longitud":-5.02429},{"municipio":"VILLAMURIEL DE CERRATO","latitud":41.947956,"longitud":-4.515428},{"municipio":"VILLARMENTERO DE CAMPOS","latitud":42.296943,"longitud":-4.499839},{"municipio":"VILLARRAMIEL","latitud":42.042367,"longitud":-4.910772},{"municipio":"VILLASARRACINO","latitud":42.412132,"longitud":-4.496589},{"municipio":"VILLATURDE","latitud":42.376698,"longitud":-4.671189},{"municipio":"VILLODRIGO","latitud":42.144633,"longitud":-4.094317},{"municipio":"ALARAZ","latitud":40.747528,"longitud":-5.288001},{"municipio":"ALBA DE YELTES","latitud":40.671591,"longitud":-6.316001},{"municipio":"ALDEASECA DE ALBA","latitud":40.818393,"longitud":-5.4463},{"municipio":"ALDEATEJADA","latitud":40.92258,"longitud":-5.69272},{"municipio":"ALDEAVIEJA DE TORMES","latitud":40.583403,"longitud":-5.617269},{"municipio":"ALDEHUELA DE LA BÓVEDA","latitud":40.843677,"longitud":-6.048234},{"municipio":"ALDEHUELA DE YELTES","latitud":40.661814,"longitud":-6.242377},{"municipio":"ALMENDRA","latitud":41.229708,"longitud":-6.340768},{"municipio":"BARBADILLO","latitud":40.931492,"longitud":-5.881686},{"municipio":"BERMELLAR","latitud":40.999271,"longitud":-6.67043},{"municipio":"BUENAMADRE","latitud":40.856242,"longitud":-6.25018},{"municipio":"CABEZA DEL CABALLO","latitud":41.129631,"longitud":-6.559176},{"municipio":"CABRILLAS","latitud":40.740594,"longitud":-6.178355},{"municipio":"CALVARRASA DE ABAJO","latitud":40.945767,"longitud":-5.550925},{"municipio":"CALZADA DE VALDUNCIEL","latitud":41.086248,"longitud":-5.702168},{"municipio":"CAMPILLO DE AZABA","latitud":40.511101,"longitud":-6.688504},{"municipio":"CANILLAS DE ABAJO","latitud":40.921633,"longitud":-5.929728},{"municipio":"CARRASCAL DEL OBISPO","latitud":40.763456,"longitud":-5.999737},{"municipio":"CASAFRANCA","latitud":40.591801,"longitud":-5.760969},{"municipio":"CASILLAS DE FLORES","latitud":40.382444,"longitud":-6.753858},{"municipio":"CASTELLANOS DE MORISCOS","latitud":41.018509,"longitud":-5.591607},{"municipio":"CASTRAZ","latitud":40.705472,"longitud":-6.334477},{"municipio":"CEPEDA","latitud":40.465292,"longitud":-6.040074},{"municipio":"CERRALBO","latitud":40.974011,"longitud":-6.587573},{"municipio":"VILLARINO DE LOS AIRES","latitud":41.269717,"longitud":-6.467725},{"municipio":"VILLARMUERTO","latitud":41.054478,"longitud":-6.364307},{"municipio":"ZORITA DE LA FRONTERA","latitud":41.014215,"longitud":-5.196686},{"municipio":"ADRADOS","latitud":41.368595,"longitud":-4.115625},{"municipio":"ALDEALCORVO","latitud":41.244002,"longitud":-3.791299},{"municipio":"ALDEANUEVA DEL CODONAL","latitud":41.083402,"longitud":-4.543344},{"municipio":"ALDEONTE","latitud":41.351021,"longitud":-3.678549},{"municipio":"AÑE","latitud":41.037447,"longitud":-4.295129},{"municipio":"ARAHUETES","latitud":41.137805,"longitud":-3.85695},{"municipio":"BERNUY DE PORREROS","latitud":41.000793,"longitud":-4.115976},{"municipio":"BRIEVA","latitud":41.034736,"longitud":-4.053629},{"municipio":"CABAÑAS DE POLENDOS","latitud":41.067169,"longitud":-4.109837},{"municipio":"CANTIMPALOS","latitud":41.074673,"longitud":-4.15916},{"municipio":"CODORNIZ","latitud":41.067261,"longitud":-4.598774},{"municipio":"CORRAL DE AYLLÓN","latitud":41.391318,"longitud":-3.459316},{"municipio":"COZUELOS DE FUENTIDUEÑA","latitud":41.391336,"longitud":-4.095285},{"municipio":"DONHIERRO","latitud":41.116645,"longitud":-4.694293},{"municipio":"ESCALONA DEL PRADO","latitud":41.166626,"longitud":-4.122777},{"municipio":"ESCOBAR DE POLENDOS","latitud":41.090844,"longitud":-4.13094},{"municipio":"JUARROS DE VOLTOYA","latitud":41.03245,"longitud":-4.518624},{"municipio":"MARTÍN MUÑOZ DE LAS POSADAS","latitud":40.996122,"longitud":-4.595913},{"municipio":"MARUGÁN","latitud":40.896824,"longitud":-4.384281},{"municipio":"VILLOTA DEL PÁRAMO","latitud":42.551763,"longitud":-4.84797},{"municipio":"ARAPILES","latitud":40.894131,"longitud":-5.644704},{"municipio":"CANTARACILLO","latitud":40.903316,"longitud":-5.163308},{"municipio":"CEREZAL DE PEÑAHORCADA","latitud":41.130802,"longitud":-6.651394},{"municipio":"GALINDO Y PERAHUY","latitud":40.942768,"longitud":-5.872686},{"municipio":"GALLEGOS DE ARGAÑÁN","latitud":40.629954,"longitud":-6.702211},{"municipio":"HERGUIJUELA DEL CAMPO","latitud":40.630408,"longitud":-5.863984},{"municipio":"HUERTA","latitud":40.968265,"longitud":-5.468289},{"municipio":"IRUELOS","latitud":41.140773,"longitud":-6.327167},{"municipio":"LA ALAMEDA DE GARDÓN","latitud":40.650296,"longitud":-6.758225},{"municipio":"LA ALBERCA","latitud":40.488659,"longitud":-6.10994},{"municipio":"LA BOUZA","latitud":40.835423,"longitud":-6.794849},{"municipio":"LA FUENTE DE SAN ESTEBAN","latitud":40.801782,"longitud":-6.257462},{"municipio":"LA REDONDA","latitud":40.908303,"longitud":-6.749546},{"municipio":"LA SIERPE","latitud":40.645767,"longitud":-5.856269},{"municipio":"LARRODRIGO","latitud":40.736364,"longitud":-5.449211},{"municipio":"OLMEDO DE CAMACES","latitud":40.879005,"longitud":-6.623887},{"municipio":"PALACIOS DEL ARZOBISPO","latitud":41.165614,"longitud":-5.890152},{"municipio":"SANDO","latitud":40.96691,"longitud":-6.111699},{"municipio":"SANTA MARÍA DE SANDO","latitud":40.979763,"longitud":-6.130606},{"municipio":"SANTIAGO DE LA PUEBLA","latitud":40.800842,"longitud":-5.27991},{"municipio":"SANTIBÁÑEZ DE BÉJAR","latitud":40.487463,"longitud":-5.611754},{"municipio":"SANTIZ","latitud":41.204207,"longitud":-5.894784},{"municipio":"SAUCELLE","latitud":41.047859,"longitud":-6.751371},{"municipio":"SEPULCRO-HILARIO","latitud":40.70014,"longitud":-6.187375},{"municipio":"VALDEFUENTES DE SANGUSÍN","latitud":40.466036,"longitud":-5.83151},{"municipio":"VALDELACASA","latitud":40.505838,"longitud":-5.763881},{"municipio":"VALDELAGEVE","latitud":40.368858,"longitud":-5.992302},{"municipio":"VALVERDE DE VALDELACASA","latitud":40.480578,"longitud":-5.781647},{"municipio":"VILLAR DE LA YEGUA","latitud":40.724886,"longitud":-6.704103},{"municipio":"CABEZUELA","latitud":41.235456,"longitud":-3.932888},{"municipio":"CASLA","latitud":41.166962,"longitud":-3.655505},{"municipio":"CASTILLEJO DE MESLEÓN","latitud":41.280939,"longitud":-3.600959},{"municipio":"CEDILLO DE LA TORRE","latitud":41.424592,"longitud":-3.605916},{"municipio":"CEREZO DE ABAJO","latitud":41.217531,"longitud":-3.592566},{"municipio":"COCA","latitud":41.218402,"longitud":-4.522131},{"municipio":"GALLEGOS","latitud":41.074543,"longitud":-3.785968},{"municipio":"CESPEDOSA DE TORMES","latitud":40.542947,"longitud":-5.580235},{"municipio":"CORDOVILLA","latitud":40.951262,"longitud":-5.405973},{"municipio":"DOÑINOS DE LEDESMA","latitud":41.012429,"longitud":-6.033405},{"municipio":"EL CERRO","latitud":40.327831,"longitud":-5.915049},{"municipio":"EL PAYO","latitud":40.286541,"longitud":-6.726841},{"municipio":"EL PINO DE TORMES","latitud":41.038885,"longitud":-5.794097},{"municipio":"EL TORNADIZO","latitud":40.542015,"longitud":-5.890615},{"municipio":"ENCINA DE SAN SILVESTRE","latitud":41.01476,"longitud":-6.0916689999999996},{"municipio":"ESPADAÑA","latitud":41.062158,"longitud":-6.285203},{"municipio":"ESPINO DE LA ORBADA","latitud":41.105982,"longitud":-5.424272},{"municipio":"FLORIDA DE LIÉBANA","latitud":41.023011,"longitud":-5.761803},{"municipio":"FRESNO ALHÁNDIGA","latitud":40.71244,"longitud":-5.616224},{"municipio":"FUENTELIANTE","latitud":40.875102,"longitud":-6.572727},{"municipio":"FUENTERROBLE DE SALVATIERRA","latitud":40.56263,"longitud":-5.733196},{"municipio":"FUENTES DE OÑORO","latitud":40.589462,"longitud":-6.81175},{"municipio":"LEDRADA","latitud":40.46862,"longitud":-5.719471},{"municipio":"LINARES DE RIOFRÍO","latitud":40.584127,"longitud":-5.921219},{"municipio":"LOS SANTOS","latitud":40.543942,"longitud":-5.796666},{"municipio":"MANCERA DE ABAJO","latitud":40.839602,"longitud":-5.199651},{"municipio":"MASUECO","latitud":41.203474,"longitud":-6.589425},{"municipio":"MIEZA","latitud":41.162497,"longitud":-6.687975},{"municipio":"MONFORTE DE LA SIERRA","latitud":40.483408,"longitud":-6.056675},{"municipio":"MONLEÓN","latitud":40.58359,"longitud":-5.846449},{"municipio":"MONSAGRO","latitud":40.502907,"longitud":-6.269357},{"municipio":"MONTEMAYOR DEL RÍO","latitud":40.348921,"longitud":-5.892683},{"municipio":"MONTERRUBIO DE ARMUÑA","latitud":41.027268,"longitud":-5.642939},{"municipio":"MORISCOS","latitud":41.007425,"longitud":-5.582243},{"municipio":"MOZÁRBEZ","latitud":40.856839,"longitud":-5.65112},{"municipio":"NARROS DE MATALAYEGUA","latitud":40.69975,"longitud":-5.926175},{"municipio":"NAVA DE BÉJAR","latitud":40.474209,"longitud":-5.680725},{"municipio":"NAVA DE SOTROBAL","latitud":40.889929,"longitud":-5.286611},{"municipio":"NAVASFRÍAS","latitud":40.295127,"longitud":-6.818594},{"municipio":"PARADA DE ARRIBA","latitud":40.986425,"longitud":-5.792438},{"municipio":"PARADA DE RUBIALES","latitud":41.147576,"longitud":-5.436624},{"municipio":"PARADINAS DE SAN JUAN","latitud":40.983857,"longitud":-5.153446},{"municipio":"PEDROSILLO DE ALBA","latitud":40.822789,"longitud":-5.396519},{"municipio":"PELABRAVO","latitud":40.935942,"longitud":-5.578731},{"municipio":"PELARRODRÍGUEZ","latitud":40.886645,"longitud":-6.212697},{"municipio":"PEÑAPARDA","latitud":40.320593,"longitud":-6.668604},{"municipio":"PERALEJOS DE ARRIBA","latitud":41.004571,"longitud":-6.333493},{"municipio":"PEREÑA DE LA RIBERA","latitud":41.237933,"longitud":-6.524407},{"municipio":"PITIEGUA","latitud":41.061409,"longitud":-5.466117},{"municipio":"PUERTO DE BÉJAR","latitud":40.350445,"longitud":-5.837014},{"municipio":"RÁGAMA","latitud":40.996751,"longitud":-5.127972},{"municipio":"ROBLEDA","latitud":40.384881,"longitud":-6.605611},{"municipio":"ROLLÁN","latitud":40.961931,"longitud":-5.916909},{"municipio":"SALVATIERRA DE TORMES","latitud":40.590482,"longitud":-5.599763},{"municipio":"SAN CRISTÓBAL DE LA CUESTA","latitud":41.029414,"longitud":-5.618797},{"municipio":"SAN ESTEBAN DE LA SIERRA","latitud":40.506716,"longitud":-5.906054},{"municipio":"SAN FELICES DE LOS GALLEGOS","latitud":40.848965,"longitud":-6.70893},{"municipio":"SAN MIGUEL DEL ROBLEDO","latitud":40.536416,"longitud":-6.044636},{"municipio":"SAN PEDRO DE ROZADOS","latitud":40.790567,"longitud":-5.738097},{"municipio":"SAN PELAYO DE GUAREÑA","latitud":41.115797,"longitud":-5.857774},{"municipio":"SANCHÓN DE LA RIBERA","latitud":41.087792,"longitud":-6.413205},{"municipio":"SANCHÓN DE LA SAGRADA","latitud":40.743902,"longitud":-6.025265},{"municipio":"SOBRADILLO","latitud":40.916351,"longitud":-6.796646},{"municipio":"TREMEDAL DE TORMES","latitud":41.074058,"longitud":-6.180923},{"municipio":"VALDEMIERQUE","latitud":40.82204,"longitud":-5.583892},{"municipio":"VALDERRODRIGO","latitud":41.064661,"longitud":-6.509413},{"municipio":"VILLAR DE PERALONSO","latitud":41.032151,"longitud":-6.221732},{"municipio":"VILLASBUENAS","latitud":41.062029,"longitud":-6.594966},{"municipio":"VILLASECO DE LOS REYES","latitud":41.161946,"longitud":-6.185913},{"municipio":"ZAMAYÓN","latitud":41.147757,"longitud":-5.829529},{"municipio":"ZARAPICOS","latitud":41.038635,"longitud":-5.844796},{"municipio":"ALDEALENGUA DE PEDRAZA","latitud":41.064036,"longitud":-3.806052},{"municipio":"CAMPO DE SAN PEDRO","latitud":41.429832,"longitud":-3.548563},{"municipio":"ENCINILLAS","latitud":41.017819,"longitud":-4.157913},{"municipio":"FUENTERREBOLLO","latitud":41.297367,"longitud":-3.932921},{"municipio":"LA LOSA","latitud":40.854462,"longitud":-4.164652},{"municipio":"LAGUNA DE CONTRERAS","latitud":41.494512,"longitud":-4.028542},{"municipio":"MATA DE CUÉLLAR","latitud":41.398668,"longitud":-4.47219},{"municipio":"MELQUE DE CERCOS","latitud":41.051171,"longitud":-4.469019},{"municipio":"MONTEJO DE LA VEGA DE LA SERREZUELA","latitud":41.549114,"longitud":-3.652677},{"municipio":"MUÑOPEDRO","latitud":40.888026,"longitud":-4.472041},{"municipio":"MUÑOVEROS","latitud":41.172822,"longitud":-3.9518},{"municipio":"NAVA DE LA ASUNCIÓN","latitud":41.156639,"longitud":-4.488963},{"municipio":"NAVALILLA","latitud":41.340726,"longitud":-3.93226},{"municipio":"NAVALMANZANO","latitud":41.214727,"longitud":-4.256285},{"municipio":"NAVAS DE ORO","latitud":41.196063,"longitud":-4.437385},{"municipio":"NAVAS DE SAN ANTONIO","latitud":40.761572,"longitud":-4.329414},{"municipio":"OREJANA","latitud":41.164679,"longitud":-3.780464},{"municipio":"PEROSILLO","latitud":41.39282,"longitud":-4.14184},{"municipio":"RAPARIEGOS","latitud":41.094448,"longitud":-4.654168},{"municipio":"SAN CRISTÓBAL DE CUÉLLAR","latitud":41.406858,"longitud":-4.404302},{"municipio":"SANCHONUÑO","latitud":41.322465,"longitud":-4.305896},{"municipio":"SANTO DOMINGO DE PIRÓN","latitud":41.040761,"longitud":-3.989693},{"municipio":"SAUQUILLO DE CABEZAS","latitud":41.195146,"longitud":-4.068635},{"municipio":"SEBÚLCOR","latitud":41.270534,"longitud":-3.883648},{"municipio":"SEGOVIA","latitud":40.94987,"longitud":-4.125241},{"municipio":"TOLOCIRIO","latitud":41.133732,"longitud":-4.651533},{"municipio":"TORRE VAL DE SAN PEDRO","latitud":41.072405,"longitud":-3.86923},{"municipio":"TORRECILLA DEL PINAR","latitud":41.374677,"longitud":-4.038407},{"municipio":"VALLELADO","latitud":41.406223,"longitud":-4.4266},{"municipio":"VALLERUELA DE PEDRAZA","latitud":41.179416,"longitud":-3.806666},{"municipio":"VALSECA","latitud":41.000293,"longitud":-4.174479},{"municipio":"VALVERDE DEL MAJANO","latitud":40.956398,"longitud":-4.233884},{"municipio":"YANGUAS DE ERESMA","latitud":41.071735,"longitud":-4.238239},{"municipio":"ABEJAR","latitud":41.807928,"longitud":-2.782914},{"municipio":"ALDEALAFUENTE","latitud":41.671909,"longitud":-2.325381},{"municipio":"ALDEALICES","latitud":41.899827,"longitud":-2.309772},{"municipio":"ALMALUEZ","latitud":41.289722,"longitud":-2.269073},{"municipio":"ALMAZUL","latitud":41.573926,"longitud":-2.146226},{"municipio":"ALMENAR DE SORIA","latitud":41.68248,"longitud":-2.200037},{"municipio":"BLIECOS","latitud":41.528401,"longitud":-2.27158},{"municipio":"BUBEROS","latitud":41.64614,"longitud":-2.19417},{"municipio":"CABREJAS DEL PINAR","latitud":41.794733,"longitud":-2.85071},{"municipio":"CALTOJAR","latitud":41.402724,"longitud":-2.764159},{"municipio":"DÉVANOS","latitud":41.904517,"longitud":-1.946771},{"municipio":"FRESNO DE CARACENA","latitud":41.452352,"longitud":-3.092589},{"municipio":"GÓMARA","latitud":41.623744,"longitud":-2.224964},{"municipio":"HINOJOSA DEL CAMPO","latitud":41.738475,"longitud":-2.101202},{"municipio":"LAS ALDEHUELAS","latitud":41.994965,"longitud":-2.366008},{"municipio":"LOS RÁBANOS","latitud":41.717243,"longitud":-2.475802},{"municipio":"MAGAÑA","latitud":41.898862,"longitud":-2.156098},{"municipio":"MONTENEGRO DE CAMEROS","latitud":42.089736,"longitud":-2.753835},{"municipio":"NAVALENO","latitud":41.837927,"longitud":-3.004147},{"municipio":"NEPAS","latitud":41.526207,"longitud":-2.398155},{"municipio":"NOVIERCAS","latitud":41.712041,"longitud":-2.036936},{"municipio":"POZALMURO","latitud":41.772888,"longitud":-2.105486},{"municipio":"SAMBOAL","latitud":41.259287,"longitud":-4.419207},{"municipio":"SAN MIGUEL DE BERNUY","latitud":41.399064,"longitud":-3.9527},{"municipio":"SAN PEDRO DE GAÍLLOS","latitud":41.227045,"longitud":-3.810054},{"municipio":"TORREIGLESIAS","latitud":41.102316,"longitud":-4.03151},{"municipio":"URUEÑAS","latitud":41.357487,"longitud":-3.773242},{"municipio":"VALDEPRADOS","latitud":40.817923,"longitud":-4.256655},{"municipio":"VALDEVACAS DE MONTEJO","latitud":41.522097,"longitud":-3.635853},{"municipio":"VEGAS DE MATUTE","latitud":40.79699,"longitud":-4.27864},{"municipio":"VENTOSILLA Y TEJADILLA","latitud":41.18148,"longitud":-3.694411},{"municipio":"VILLEGUILLO","latitud":41.252396,"longitud":-4.578348},{"municipio":"ALCUBILLA DE LAS PEÑAS","latitud":41.251954,"longitud":-2.527417},{"municipio":"ALDEALPOZO","latitud":41.781557,"longitud":-2.206628},{"municipio":"ARCOS DE JALÓN","latitud":41.213421,"longitud":-2.272513},{"municipio":"ARENILLAS","latitud":41.346988,"longitud":-2.846192},{"municipio":"BARAONA","latitud":41.295301,"longitud":-2.657745},{"municipio":"BERLANGA DE DUERO","latitud":41.464781,"longitud":-2.860727},{"municipio":"CARABANTES","latitud":41.552508,"longitud":-1.998025},{"municipio":"CARACENA","latitud":41.383482,"longitud":-3.090087},{"municipio":"CARRASCOSA DE LA SIERRA","latitud":41.894422,"longitud":-2.281815},{"municipio":"CASTILFRÍO DE LA SIERRA","latitud":41.919904,"longitud":-2.305467},{"municipio":"CIRUJALES DEL RÍO","latitud":41.866921,"longitud":-2.325851},{"municipio":"COVALEDA","latitud":41.935538,"longitud":-2.881622},{"municipio":"CUEVA DE ÁGREDA","latitud":41.763155,"longitud":-1.889334},{"municipio":"FUENTEARMEGIL","latitud":41.715032,"longitud":-3.182361},{"municipio":"FUENTELMONGE","latitud":41.421609,"longitud":-2.188182},{"municipio":"GOLMAYO","latitud":41.765435,"longitud":-2.524146},{"municipio":"MATAMALA DE ALMAZÁN","latitud":41.504944,"longitud":-2.639855},{"municipio":"MIÑO DE SAN ESTEBAN","latitud":41.535919,"longitud":-3.345996},{"municipio":"MONTEAGUDO DE LAS VICARÍAS","latitud":41.366293,"longitud":-2.166643},{"municipio":"SALAS DE LOS INFANTES","latitud":42.022314,"longitud":-3.282137},{"municipio":"SALINILLAS DE BUREBA","latitud":42.552895,"longitud":-3.388483},{"municipio":"SAN ADRIÁN DE JUARROS","latitud":42.273855,"longitud":-3.47607},{"municipio":"SAN JUAN DEL MONTE","latitud":41.6844,"longitud":-3.521306},{"municipio":"SAN MAMÉS DE BURGOS","latitud":42.337529,"longitud":-3.795067},{"municipio":"SANTA CECILIA","latitud":42.052273,"longitud":-3.804323},{"municipio":"SANTA CRUZ DEL VALLE URBIÓN","latitud":42.304796,"longitud":-3.222726},{"municipio":"SANTA MARÍA DEL INVIERNO","latitud":42.44332,"longitud":-3.438439},{"municipio":"SANTIBÁÑEZ DE ESGUEVA","latitud":41.834394,"longitud":-3.758538},{"municipio":"SANTIBÁÑEZ DEL VAL","latitud":41.973287,"longitud":-3.48107},{"municipio":"SARRACÍN","latitud":42.258302,"longitud":-3.698087},{"municipio":"SASAMÓN","latitud":42.418242,"longitud":-4.044174},{"municipio":"SUSINOS DEL PÁRAMO","latitud":42.471035,"longitud":-3.926748},{"municipio":"TEJADA","latitud":41.952507,"longitud":-3.536417},{"municipio":"TERRADILLOS DE ESGUEVA","latitud":41.818893,"longitud":-3.843905},{"municipio":"TORREGALINDO","latitud":41.582486,"longitud":-3.753342},{"municipio":"TORREPADRE","latitud":42.043611,"longitud":-3.937123},{"municipio":"TÓRTOLES DE ESGUEVA","latitud":41.816597,"longitud":-4.021598},{"municipio":"TRESPADERNE","latitud":42.801694,"longitud":-3.390812},{"municipio":"VALDEZATE","latitud":41.602553,"longitud":-3.931026},{"municipio":"VALDORROS","latitud":42.172685,"longitud":-3.708987},{"municipio":"VALLARTA DE BUREBA","latitud":42.58807,"longitud":-3.203619},{"municipio":"VALLE DE VALDELAGUNA","latitud":42.115335,"longitud":-3.147067},{"municipio":"VALLE DE VALDELUCIO","latitud":42.717861,"longitud":-4.120628},{"municipio":"VALLE DE ZAMANZAS","latitud":42.849353,"longitud":-3.756044},{"municipio":"VALLUÉRCANES","latitud":42.572425,"longitud":-3.121932},{"municipio":"VILLAESCUSA DE ROA","latitud":41.727242,"longitud":-4.017407},{"municipio":"VILLAFRUELA","latitud":41.91857,"longitud":-3.912587},{"municipio":"VILLAGONZALO PEDERNALES","latitud":42.30039,"longitud":-3.738017},{"municipio":"VILLAHOZ","latitud":42.077121,"longitud":-3.914042},{"municipio":"VILLANUEVA DE CARAZO","latitud":41.983698,"longitud":-3.324519},{"municipio":"VILLAQUIRÁN DE LA PUEBLA","latitud":42.282949,"longitud":-4.09985},{"municipio":"VILLASUR DE HERREROS","latitud":42.30861,"longitud":-3.39534},{"municipio":"VILLEGAS","latitud":42.468468,"longitud":-4.01703},{"municipio":"VILLORUEBO","latitud":42.167281,"longitud":-3.438346},{"municipio":"VIZCAÍNOS","latitud":42.100484,"longitud":-3.26676},{"municipio":"ARGANZA","latitud":42.640782,"longitud":-6.683975},{"municipio":"BARJAS","latitud":42.611343,"longitud":-6.979489},{"municipio":"BEMBIBRE","latitud":42.615067,"longitud":-6.416706},{"municipio":"BENAVIDES","latitud":42.501845,"longitud":-5.896421},{"municipio":"BENUZA","latitud":42.401711,"longitud":-6.707616},{"municipio":"BERCIANOS DEL PÁRAMO","latitud":42.380566,"longitud":-5.704029},{"municipio":"BERCIANOS DEL REAL CAMINO","latitud":42.38714,"longitud":-5.14673},{"municipio":"BERLANGA DEL BIERZO","latitud":42.730454,"longitud":-6.60429},{"municipio":"BUSTILLO DEL PÁRAMO","latitud":42.441469,"longitud":-5.792969},{"municipio":"CABAÑAS RARAS","latitud":42.619909,"longitud":-6.636463},{"municipio":"CACABELOS","latitud":42.599569,"longitud":-6.725968},{"municipio":"CALZADA DEL COTO","latitud":42.38907,"longitud":-5.081194},{"municipio":"CAMPONARAYA","latitud":42.580365,"longitud":-6.671347},{"municipio":"CARRACEDELO","latitud":42.551931,"longitud":-6.735003},{"municipio":"CASTILFALÉ","latitud":42.219999,"longitud":-5.422142},{"municipio":"CASTROCALBÓN","latitud":42.198951,"longitud":-5.986089},{"municipio":"CASTROCONTRIGO","latitud":42.18237,"longitud":-6.191031},{"municipio":"CASTROPODAME","latitud":42.579123,"longitud":-6.468144},{"municipio":"CEBANICO","latitud":42.725275,"longitud":-5.023997},{"municipio":"CHOZAS DE ABAJO","latitud":42.506675,"longitud":-5.687187},{"municipio":"CIMANES DE LA VEGA","latitud":42.116628,"longitud":-5.598426},{"municipio":"CONGOSTO","latitud":42.617887,"longitud":-6.5197329999999996},{"municipio":"CORBILLOS DE LOS OTEROS","latitud":42.406527,"longitud":-5.45908},{"municipio":"CRÉMENES","latitud":42.904089,"longitud":-5.1441229999999996},{"municipio":"CUBILLAS DE RUEDA","latitud":42.655444,"longitud":-5.173623},{"municipio":"ENCINEDO","latitud":42.27152,"longitud":-6.594486},{"municipio":"GORDONCILLO","latitud":42.1355,"longitud":-5.401977},{"municipio":"GUSENDOS DE LOS OTEROS","latitud":42.3777,"longitud":-5.43002},{"municipio":"HOSPITAL DE ÓRBIGO","latitud":42.463565,"longitud":-5.882493},{"municipio":"IZAGRE","latitud":42.223991,"longitud":-5.257511},{"municipio":"JOARILLA DE LAS MATAS","latitud":42.287929,"longitud":-5.17853},{"municipio":"LA BAÑEZA","latitud":42.29655,"longitud":-5.899119},{"municipio":"LA POLA DE GORDÓN","latitud":42.854769,"longitud":-5.669558},{"municipio":"LA ROBLA","latitud":42.802148,"longitud":-5.628162},{"municipio":"LA VECILLA","latitud":42.848677,"longitud":-5.406181},{"municipio":"LAGUNA DALGA","latitud":42.330833,"longitud":-5.750444},{"municipio":"LAS OMAÑAS","latitud":42.682437,"longitud":-5.869651},{"municipio":"LEÓN","latitud":42.599121,"longitud":-5.567076},{"municipio":"LUCILLO","latitud":42.409487,"longitud":-6.303396},{"municipio":"MANSILLA MAYOR","latitud":42.508341,"longitud":-5.443959},{"municipio":"MATALLANA DE TORÍO","latitud":42.866262,"longitud":-5.520096},{"municipio":"NOCEDA DEL BIERZO","latitud":42.713043,"longitud":-6.39677},{"municipio":"OENCIA","latitud":42.546796,"longitud":-6.970608},{"municipio":"ONZONILLA","latitud":42.525428,"longitud":-5.580492},{"municipio":"PALACIOS DEL SIL","latitud":42.87538,"longitud":-6.433875},{"municipio":"PUEBLA DE LILLO","latitud":43.006944,"longitud":-5.273706},{"municipio":"PUENTE DE DOMINGO FLÓREZ","latitud":42.410721,"longitud":-6.818355},{"municipio":"REGUERAS DE ARRIBA","latitud":42.292346,"longitud":-5.862175},{"municipio":"RIAÑO","latitud":42.973051,"longitud":-5.016162},{"municipio":"RIOSECO DE TAPIA","latitud":42.729895,"longitud":-5.789392},{"municipio":"ROPERUELOS DEL PÁRAMO","latitud":42.237478,"longitud":-5.782739},{"municipio":"SAN EMILIANO","latitud":42.972437,"longitud":-6.001644},{"municipio":"SAN JUSTO DE LA VEGA","latitud":42.452563,"longitud":-6.015991},{"municipio":"SANTA COLOMBA DE SOMOZA","latitud":42.442617,"longitud":-6.242525},{"municipio":"SANTA CRISTINA DE VALMADRIGAL","latitud":42.353536,"longitud":-5.309496},{"municipio":"SANTA ELENA DE JAMUZ","latitud":42.259454,"longitud":-5.888204},{"municipio":"SANTA MARÍA DE LA ISLA","latitud":42.356232,"longitud":-5.92833},{"municipio":"SANTAS MARTAS","latitud":42.432409,"longitud":-5.371958},{"municipio":"SARIEGOS","latitud":42.647374,"longitud":-5.631149},{"municipio":"SENA DE LUNA","latitud":42.92974,"longitud":-5.953164},{"municipio":"SOTO Y AMÍO","latitud":42.775636,"longitud":-5.88647},{"municipio":"TORENO","latitud":42.697568,"longitud":-6.510576},{"municipio":"TRABADELO","latitud":42.650123,"longitud":-6.883079},{"municipio":"TRUCHAS","latitud":42.260939,"longitud":-6.434608},{"municipio":"VALDEFRESNO","latitud":42.593744,"longitud":-5.49251},{"municipio":"VALDESAMARIO","latitud":42.721508,"longitud":-5.951445},{"municipio":"VALLE DE ANCARES","latitud":42.815549,"longitud":-6.72821},{"municipio":"VEGA DE ESPINAREDA","latitud":42.728101,"longitud":-6.656292},{"municipio":"VEGAQUEMADA","latitud":42.818818,"longitud":-5.332608},{"municipio":"VEGAS DEL CONDADO","latitud":42.68479,"longitud":-5.364936},{"municipio":"VILLAMARTÍN DE DON SANCHO","latitud":42.570625,"longitud":-5.061023},{"municipio":"VILLAMEJIL","latitud":42.56268,"longitud":-6.024302},{"municipio":"VILLAMONTÁN DE LA VALDUERNA","latitud":42.310162,"longitud":-5.996561},{"municipio":"VILLAQUEJIDA","latitud":42.146401,"longitud":-5.596014},{"municipio":"VILLAREJO DE ÓRBIGO","latitud":42.445197,"longitud":-5.903779},{"municipio":"VILLASABARIEGO","latitud":42.533365,"longitud":-5.414738},{"municipio":"ABARCA DE CAMPOS","latitud":42.06342,"longitud":-4.840506},{"municipio":"AMAYUELAS DE ARRIBA","latitud":42.211614,"longitud":-4.48935},{"municipio":"BALTANÁS","latitud":41.939332,"longitud":-4.246125},{"municipio":"BÁSCONES DE OJEDA","latitud":42.670135,"longitud":-4.527131},{"municipio":"BELMONTE DE CAMPOS","latitud":41.94158,"longitud":-4.990162},{"municipio":"BOADILLA DEL CAMINO","latitud":42.258538,"longitud":-4.347031},{"municipio":"BRAÑOSERA","latitud":42.935186,"longitud":-4.307852},{"municipio":"CALAHORRA DE BOEDO","latitud":42.57537,"longitud":-4.386044},{"municipio":"CARDEÑOSA DE VOLPEJERA","latitud":42.23193,"longitud":-4.703672},{"municipio":"CASTREJÓN DE LA PEÑA","latitud":42.807952,"longitud":-4.599288},{"municipio":"CASTRILLO DE VILLAVEGA","latitud":42.454296,"longitud":-4.479982},{"municipio":"CERVATOS DE LA CUEZA","latitud":42.291686,"longitud":-4.768952},{"municipio":"CEVICO DE LA TORRE","latitud":41.85242,"longitud":-4.410293},{"municipio":"COLLAZOS DE BOEDO","latitud":42.619909,"longitud":-4.483458},{"municipio":"CORDOVILLA LA REAL","latitud":42.080812,"longitud":-4.258792},{"municipio":"CUBILLAS DE CERRATO","latitud":41.799297,"longitud":-4.467253},{"municipio":"DUEÑAS","latitud":41.877928,"longitud":-4.545298},{"municipio":"ESPINOSA DE CERRATO","latitud":41.968251,"longitud":-3.951588},{"municipio":"FRECHILLA","latitud":42.137055,"longitud":-4.83873},{"municipio":"FRÓMISTA","latitud":42.267743,"longitud":-4.402568},{"municipio":"LA VID DE OJEDA","latitud":42.659136,"longitud":-4.38495},{"municipio":"LANTADILLA","latitud":42.340756,"longitud":-4.274928},{"municipio":"MANQUILLOS","latitud":42.203807,"longitud":-4.567684},{"municipio":"MANTINOS","latitud":42.751221,"longitud":-4.841908},{"municipio":"MARCILLA DE CAMPOS","latitud":42.31703,"longitud":-4.396017},{"municipio":"MAZARIEGOS","latitud":42.028611,"longitud":-4.716154},{"municipio":"MAZUECOS DE VALDEGINATE","latitud":42.168526,"longitud":-4.841833},{"municipio":"MENESES DE CAMPOS","latitud":41.942,"longitud":-4.919509},{"municipio":"MICIECES DE OJEDA","latitud":42.688654,"longitud":-4.460581},{"municipio":"MONZÓN DE CAMPOS","latitud":42.115263,"longitud":-4.493743},{"municipio":"MORATINOS","latitud":42.360422,"longitud":-4.927247},{"municipio":"MUDÁ","latitud":42.875967,"longitud":-4.394121},{"municipio":"OSORNO LA MAYOR","latitud":42.40979,"longitud":-4.361334},{"municipio":"PALENZUELA","latitud":42.095212,"longitud":-4.129056},{"municipio":"PIÑA DE CAMPOS","latitud":42.213545,"longitud":-4.435362},{"municipio":"POBLACIÓN DE ARROYO","latitud":42.336825,"longitud":-4.874743},{"municipio":"POBLACIÓN DE CAMPOS","latitud":42.270874,"longitud":-4.447758},{"municipio":"POZO DE URAMA","latitud":42.254333,"longitud":-4.894954},{"municipio":"QUINTANILLA DE ONSOÑA","latitud":42.470547,"longitud":-4.663671},{"municipio":"RESPENDA DE LA PEÑA","latitud":42.764057,"longitud":-4.686718},{"municipio":"REVILLA DE COLLAZOS","latitud":42.63022,"longitud":-4.50352},{"municipio":"RIBAS DE CAMPOS","latitud":42.153378,"longitud":-4.516341},{"municipio":"RIBEROS DE LA CUEZA","latitud":42.277154,"longitud":-4.727386},{"municipio":"SALDAÑA","latitud":42.522062,"longitud":-4.735138},{"municipio":"SAN CEBRIÁN DE CAMPOS","latitud":42.201325,"longitud":-4.530691},{"municipio":"SAN CEBRIÁN DE MUDÁ","latitud":42.891803,"longitud":-4.386345},{"municipio":"SANTERVÁS DE LA VEGA","latitud":42.504805,"longitud":-4.798401},{"municipio":"SANTOYO","latitud":42.214751,"longitud":-4.343229},{"municipio":"TORQUEMADA","latitud":42.034436,"longitud":-4.31758},{"municipio":"TRIOLLO","latitud":42.92443,"longitud":-4.681282},{"municipio":"VALLE DEL RETORTILLO","latitud":42.190945,"longitud":-4.771892},{"municipio":"VELILLA DEL RÍO CARRIÓN","latitud":42.827834,"longitud":-4.843214},{"municipio":"VENTA DE BAÑOS","latitud":41.92284,"longitud":-4.497346},{"municipio":"VILLABASTA DE VALDAVIA","latitud":42.560865,"longitud":-4.602222},{"municipio":"VILLACIDALER","latitud":42.222044,"longitud":-4.975713},{"municipio":"VILLALACO","latitud":42.155179,"longitud":-4.258655},{"municipio":"VILLALCÓN","latitud":42.292885,"longitud":-4.856566},{"municipio":"ALCAÑICES","latitud":41.698389,"longitud":-6.349441},{"municipio":"ALFARAZ DE SAYAGO","latitud":41.22741,"longitud":-5.98281},{"municipio":"ALGODRE","latitud":41.565075,"longitud":-5.603893},{"municipio":"ALMARAZ DE DUERO","latitud":41.4741,"longitud":-5.915668},{"municipio":"ASPARIEGOS","latitud":41.673541,"longitud":-5.598533},{"municipio":"ASTURIANOS","latitud":42.051862,"longitud":-6.489204},{"municipio":"BARCIAL DEL BARCO","latitud":41.933662,"longitud":-5.663948},{"municipio":"CAÑIZO","latitud":41.768899,"longitud":-5.501928},{"municipio":"CASTRILLO DE LA GUAREÑA","latitud":41.230412,"longitud":-5.325581},{"municipio":"CASTROGONZALO","latitud":41.989997,"longitud":-5.602921},{"municipio":"CASTRONUEVO","latitud":41.721607,"longitud":-5.543368},{"municipio":"CAZURRA","latitud":41.415698,"longitud":-5.703679},{"municipio":"CERECINOS DE CAMPOS","latitud":41.899222,"longitud":-5.482901},{"municipio":"CERNADILLA","latitud":42.021438,"longitud":-6.416733},{"municipio":"COBREROS","latitud":42.07568,"longitud":-6.701618},{"municipio":"CUBILLOS","latitud":41.574076,"longitud":-5.739663},{"municipio":"CUELGAMURES","latitud":41.306976,"longitud":-5.65797},{"municipio":"EL PERDIGÓN","latitud":41.41341,"longitud":-5.75455},{"municipio":"EL PIÑERO","latitud":41.353674,"longitud":-5.58887},{"municipio":"ESPADAÑEDO","latitud":42.116383,"longitud":-6.394126},{"municipio":"FUENTES DE ROPEL","latitud":42.003416,"longitud":-5.54672},{"municipio":"FUENTESECAS","latitud":41.628757,"longitud":-5.475193},{"municipio":"GALLEGOS DEL PAN","latitud":41.599915,"longitud":-5.580577},{"municipio":"GEMA","latitud":41.419497,"longitud":-5.648797},{"municipio":"JUSTEL","latitud":42.14843,"longitud":-6.296358},{"municipio":"LA TORRE DEL VALLE","latitud":42.090292,"longitud":-5.724301},{"municipio":"LOSACINO","latitud":41.680865,"longitud":-6.079613},{"municipio":"MAHIDE","latitud":41.869063,"longitud":-6.377211},{"municipio":"MALVA","latitud":41.653463,"longitud":-5.488447},{"municipio":"MANGANESES DE LA LAMPREANA","latitud":41.752006,"longitud":-5.71054},{"municipio":"MANGANESES DE LA POLVOROSA","latitud":42.035274,"longitud":-5.746713},{"municipio":"MELGAR DE TERA","latitud":41.96624,"longitud":-6.014163},{"municipio":"MOMBUEY","latitud":42.023327,"longitud":-6.330182},{"municipio":"MORAL DE SAYAGO","latitud":41.473095,"longitud":-6.100941},{"municipio":"MORALEJA DE SAYAGO","latitud":41.183803,"longitud":-6.003873},{"municipio":"MORALES DE TORO","latitud":41.53653,"longitud":-5.30865},{"municipio":"MORALINA","latitud":41.490188,"longitud":-6.13612},{"municipio":"MUELAS DEL PAN","latitud":41.522289,"longitud":-5.968164},{"municipio":"PALACIOS DE SANABRIA","latitud":42.053217,"longitud":-6.530843},{"municipio":"PEDRALBA DE LA PRADERÍA","latitud":42.024174,"longitud":-6.693214},{"municipio":"PERILLA DE CASTRO","latitud":41.725449,"longitud":-5.876645},{"municipio":"PORTO","latitud":42.167951,"longitud":-6.898934},{"municipio":"POZUELO DE TÁBARA","latitud":41.78529,"longitud":-5.896408},{"municipio":"QUINTANILLA DEL MONTE","latitud":41.868904,"longitud":-5.350995},{"municipio":"REQUEJO","latitud":42.031464,"longitud":-6.742481},{"municipio":"SAN CRISTÓBAL DE ENTREVIÑAS","latitud":42.046925,"longitud":-5.633942},{"municipio":"SAN MARTÍN DE VALDERADUEY","latitud":41.813682,"longitud":-5.471768},{"municipio":"SAN MIGUEL DEL VALLE","latitud":42.029274,"longitud":-5.49702},{"municipio":"SAN VICENTE DE LA CABEZA","latitud":41.80438,"longitud":-6.253115},{"municipio":"SANTOVENIA","latitud":41.879481,"longitud":-5.708693},{"municipio":"TORREGAMONES","latitud":41.48813,"longitud":-6.180528},{"municipio":"TRABAZOS","latitud":41.747526,"longitud":-6.492206},{"municipio":"VALLESA DE LA GUAREÑA","latitud":41.135362,"longitud":-5.326984},{"municipio":"VEGA DE VILLALOBOS","latitud":41.971014,"longitud":-5.463363},{"municipio":"VENIALBO","latitud":41.389369,"longitud":-5.5391},{"municipio":"VEZDEMARBÁN","latitud":41.653124,"longitud":-5.365947},{"municipio":"VILLADEPERA","latitud":41.54861,"longitud":-6.131441},{"municipio":"VILLAESCUSA","latitud":41.206823,"longitud":-5.463688},{"municipio":"VILLAFÁFILA","latitud":41.848791,"longitud":-5.61465},{"municipio":"VILLALBA DE LA LAMPREANA","latitud":41.743269,"longitud":-5.641027},{"municipio":"VILLALCAMPO","latitud":41.523046,"longitud":-6.046584},{"municipio":"VILLALUBE","latitud":41.609893,"longitud":-5.545094},{"municipio":"VILLAMAYOR DE CAMPOS","latitud":41.897478,"longitud":-5.362892},{"municipio":"VILLANÁZAR","latitud":41.974128,"longitud":-5.780287},{"municipio":"VILLANUEVA DE AZOAGUE","latitud":41.976861,"longitud":-5.665146},{"municipio":"VILLANUEVA DE LAS PERAS","latitud":41.936426,"longitud":-5.979951},{"municipio":"VILLAR DE FALLAVES","latitud":41.924957,"longitud":-5.34039},{"municipio":"VIÑAS","latitud":41.774384,"longitud":-6.468305},{"municipio":"PALACIOS DEL PAN","latitud":41.601804,"longitud":-5.878221},{"municipio":"PIEDRAHÍTA DE CASTRO","latitud":41.679982,"longitud":-5.728537},{"municipio":"PINILLA DE TORO","latitud":41.627694,"longitud":-5.365317},{"municipio":"POBLADURA DE VALDERADUEY","latitud":41.700012,"longitud":-5.542517},{"municipio":"POBLADURA DEL VALLE","latitud":42.102439,"longitud":-5.734194},{"municipio":"QUINTANILLA DEL OLMO","latitud":41.905126,"longitud":-5.406575},{"municipio":"ROELOS DE SAYAGO","latitud":41.251955,"longitud":-6.171849},{"municipio":"SAMIR DE LOS CAÑOS","latitud":41.672715,"longitud":-6.164073},{"municipio":"SANTA MARÍA DE LA VEGA","latitud":42.085074,"longitud":-5.809914},{"municipio":"SANTIBÁÑEZ DE VIDRIALES","latitud":42.078106,"longitud":-6.013412},{"municipio":"SANZOLES","latitud":41.4326,"longitud":-5.567473},{"municipio":"TORO","latitud":41.51991,"longitud":-5.394642},{"municipio":"VADILLO DE LA GUAREÑA","latitud":41.283005,"longitud":-5.352523},{"municipio":"VEGA DE TERA","latitud":41.998292,"longitud":-6.12514},{"municipio":"VILLALOBOS","latitud":41.948233,"longitud":-5.475756},{"municipio":"VILLANUEVA DE CAMPEÁN","latitud":41.354861,"longitud":-5.769888},{"municipio":"VILLARDECIERVOS","latitud":41.942316,"longitud":-6.289652},{"municipio":"ADANERO","latitud":40.944236,"longitud":-4.603775},{"municipio":"ALDEANUEVA DE SANTA CRUZ","latitud":40.38196,"longitud":-5.419593},{"municipio":"AVELLANEDA","latitud":40.388659,"longitud":-5.388061},{"municipio":"BLASCOSANCHO","latitud":40.878249,"longitud":-4.637347},{"municipio":"BOHOYO","latitud":40.316655,"longitud":-5.442655},{"municipio":"BONILLA DE LA SIERRA","latitud":40.530831,"longitud":-5.264991},{"municipio":"BRABOS","latitud":40.780343,"longitud":-4.939506},{"municipio":"BULARROS","latitud":40.72401,"longitud":-4.865041},{"municipio":"CABEZAS DEL POZO","latitud":41.001232,"longitud":-4.954812},{"municipio":"CABEZAS DEL VILLAR","latitud":40.716278,"longitud":-5.211887},{"municipio":"CANALES","latitud":41.003967,"longitud":-4.901173},{"municipio":"CANTIVEROS","latitud":40.951929,"longitud":-4.956185},{"municipio":"CASAS DEL PUERTO","latitud":40.528569,"longitud":-5.198357},{"municipio":"CEBREROS","latitud":40.454779,"longitud":-4.464399},{"municipio":"CHAMARTÍN","latitud":40.701615,"longitud":-4.958112},{"municipio":"CISLA","latitud":40.965295,"longitud":-5.013227},{"municipio":"COLLADO DEL MIRÓN","latitud":40.55449,"longitud":-5.353557},{"municipio":"EL BARRACO","latitud":40.476079,"longitud":-4.641142},{"municipio":"EL BOHODÓN","latitud":40.916264,"longitud":-4.729838},{"municipio":"EL HORNILLO","latitud":40.249954,"longitud":-5.103655},{"municipio":"EL PARRAL","latitud":40.797827,"longitud":-4.990285},{"municipio":"EL TIEMBLO","latitud":40.415683,"longitud":-4.500749},{"municipio":"FRESNEDILLA","latitud":40.231956,"longitud":-4.621118},{"municipio":"FUENTE EL SAÚZ","latitud":40.977514,"longitud":-4.909221},{"municipio":"FUENTES DE AÑO","latitud":41.017549,"longitud":-4.898007},{"municipio":"GALLEGOS DE ALTAMIROS","latitud":40.709599,"longitud":-4.89866},{"municipio":"GALLEGOS DE SOBRINOS","latitud":40.717329,"longitud":-5.112086},{"municipio":"GUISANDO","latitud":40.221963,"longitud":-5.140112},{"municipio":"GUTIERRE-MUÑOZ","latitud":40.982699,"longitud":-4.636491},{"municipio":"HERNANSANCHO","latitud":40.857489,"longitud":-4.730337},{"municipio":"HERRADÓN DE PINARES","latitud":40.565312,"longitud":-4.56023},{"municipio":"HERREROS DE SUSO","latitud":40.802534,"longitud":-5.038494},{"municipio":"HORCAJO DE LAS TORRES","latitud":41.064882,"longitud":-5.09062},{"municipio":"HOYOCASERO","latitud":40.399508,"longitud":-4.975607},{"municipio":"HOYOS DE MIGUEL MUÑOZ","latitud":40.393433,"longitud":-5.066902},{"municipio":"HURTUMPASCUAL","latitud":40.692758,"longitud":-5.110978},{"municipio":"JUNCIANA","latitud":40.411024,"longitud":-5.557415},{"municipio":"LA COLILLA","latitud":40.646739,"longitud":-4.766502},{"municipio":"LA HIJA DE DIOS","latitud":40.533872,"longitud":-4.972665},{"municipio":"LAS NAVAS DEL MARQUÉS","latitud":40.603046,"longitud":-4.326009},{"municipio":"LOS LLANOS DE TORMES","latitud":40.328312,"longitud":-5.498676},{"municipio":"MALPARTIDA DE CORNEJA","latitud":40.520691,"longitud":-5.350993},{"municipio":"MEDINILLA","latitud":40.439747,"longitud":-5.618264},{"municipio":"MONSALUPE","latitud":40.769202,"longitud":-4.781304},{"municipio":"MORALEJA DE MATACABRAS","latitud":41.107301,"longitud":-4.957097},{"municipio":"MUÑOMER DEL PECO","latitud":40.859571,"longitud":-4.880465},{"municipio":"MUÑOPEPE","latitud":40.633594,"longitud":-4.820583},{"municipio":"MUÑOSANCHO","latitud":40.921973,"longitud":-5.035046},{"municipio":"NARRILLOS DEL ÁLAMO","latitud":40.567055,"longitud":-5.466694},{"municipio":"NARROS DEL CASTILLO","latitud":40.858961,"longitud":-5.059632},{"municipio":"NARROS DEL PUERTO","latitud":40.540633,"longitud":-4.989677},{"municipio":"NAVA DEL BARCO","latitud":40.293301,"longitud":-5.541534},{"municipio":"NAVACEPEDILLA DE CORNEJA","latitud":40.485839,"longitud":-5.18435},{"municipio":"NAVADIJOS","latitud":40.42559,"longitud":-5.083563},{"municipio":"NAVAESCURIAL","latitud":40.471606,"longitud":-5.276775},{"municipio":"NAVAHONDILLA","latitud":40.325282,"longitud":-4.493649},{"municipio":"NAVALOSA","latitud":40.401826,"longitud":-4.931181},{"municipio":"NAVARREDONDA DE GREDOS","latitud":40.362113,"longitud":-5.136119},{"municipio":"NAVARREDONDILLA","latitud":40.453563,"longitud":-4.821246},{"municipio":"OJOS-ALBOS","latitud":40.706461,"longitud":-4.516428},{"municipio":"PAPATRIGO","latitud":40.870151,"longitud":-4.831484},{"municipio":"PEDRO-RODRÍGUEZ","latitud":40.936524,"longitud":-4.785315},{"municipio":"POVEDA","latitud":40.566287,"longitud":-5.079677},{"municipio":"SALOBRAL","latitud":40.611407,"longitud":-4.810891},{"municipio":"SAN ESTEBAN DE LOS PATOS","latitud":40.746082,"longitud":-4.624733},{"municipio":"SAN ESTEBAN DE ZAPARDIEL","latitud":41.092158,"longitud":-4.901236},{"municipio":"SAN ESTEBAN DEL VALLE","latitud":40.27572,"longitud":-4.97955},{"municipio":"SAN JUAN DE LA NAVA","latitud":40.478247,"longitud":-4.683971},{"municipio":"SAN MIGUEL DE CORNEJA","latitud":40.487724,"longitud":-5.286652},{"municipio":"SANTA MARÍA DE LOS CABALLEROS","latitud":40.388177,"longitud":-5.451576},{"municipio":"SANTA MARÍA DEL ARROYO","latitud":40.604132,"longitud":-4.924298},{"municipio":"SANTIAGO DEL COLLADO","latitud":40.433561,"longitud":-5.356583},{"municipio":"SANTO TOMÉ DE ZABARCOS","latitud":40.787784,"longitud":-4.910307},{"municipio":"SOLANA DE RIOALMAR","latitud":40.737923,"longitud":-5.010111},{"municipio":"SOTALBO","latitud":40.541955,"longitud":-4.850005},{"municipio":"TORNADIZOS DE ÁVILA","latitud":40.626366,"longitud":-4.614274},{"municipio":"TÓRTOLES","latitud":40.561768,"longitud":-5.259242},{"municipio":"UMBRÍAS","latitud":40.315809,"longitud":-5.580647},{"municipio":"VADILLO DE LA SIERRA","latitud":40.606284,"longitud":-5.126526},{"municipio":"VELAYOS","latitud":40.84103,"longitud":-4.622553},{"municipio":"VILLANUEVA DE ÁVILA","latitud":40.378773,"longitud":-4.822505},{"municipio":"VILLANUEVA DE GÓMEZ","latitud":40.883687,"longitud":-4.716242},{"municipio":"VILLAREJO DEL VALLE","latitud":40.285923,"longitud":-4.996998},{"municipio":"VIÑEGRA DE MORAÑA","latitud":40.851549,"longitud":-4.920169},{"municipio":"ADRADA DE HAZA","latitud":41.594223,"longitud":-3.823097},{"municipio":"AGUILAR DE BUREBA","latitud":42.590132,"longitud":-3.328516},{"municipio":"ALBILLOS","latitud":42.276171,"longitud":-3.791095},{"municipio":"ALFOZ DE QUINTANADUEÑAS","latitud":42.384825,"longitud":-3.736053},{"municipio":"ALFOZ DE SANTA GADEA","latitud":42.955776,"longitud":-3.952068},{"municipio":"ARANDILLA","latitud":41.737684,"longitud":-3.430006},{"municipio":"ARAUZO DE MIEL","latitud":41.85988,"longitud":-3.38775},{"municipio":"ARAUZO DE TORRE","latitud":41.797967,"longitud":-3.423186},{"municipio":"ARLANZÓN","latitud":42.32029,"longitud":-3.458652},{"municipio":"AVELLANOSA DE MUÑÓ","latitud":41.983563,"longitud":-3.826852},{"municipio":"BELORADO","latitud":42.420584,"longitud":-3.189708},{"municipio":"BERBERANA","latitud":42.918251,"longitud":-3.05949},{"municipio":"BOZOÓ","latitud":42.726249,"longitud":-3.085279},{"municipio":"BRAZACORTA","latitud":41.717094,"longitud":-3.367476},{"municipio":"CABEZÓN DE LA SIERRA","latitud":41.934914,"longitud":-3.241174},{"municipio":"CAMPOLARA","latitud":42.119136,"longitud":-3.427732},{"municipio":"CANTABRANA","latitud":42.73364,"longitud":-3.467654},{"municipio":"CARCEDO DE BUREBA","latitud":42.576981,"longitud":-3.498959},{"municipio":"CARCEDO DE BURGOS","latitud":42.286212,"longitud":-3.622927},{"municipio":"CASCAJARES DE LA SIERRA","latitud":42.062047,"longitud":-3.399249},{"municipio":"CASTIL DE PEONES","latitud":42.48291,"longitud":-3.385787},{"municipio":"CASTRILLO DE LA REINA","latitud":41.986884,"longitud":-3.236529},{"municipio":"CEREZO DE RÍO TIRÓN","latitud":42.492707,"longitud":-3.136381},{"municipio":"CERRATÓN DE JUARROS","latitud":42.422384,"longitud":-3.373869},{"municipio":"CIRUELOS DE CERVERA","latitud":41.906957,"longitud":-3.52891},{"municipio":"COGOLLOS","latitud":42.201566,"longitud":-3.699014},{"municipio":"CONDADO DE TREVIÑO","latitud":42.735329,"longitud":-2.747459},{"municipio":"CUBILLO DEL CAMPO","latitud":42.170096,"longitud":-3.610891},{"municipio":"ESTÉPAR","latitud":42.276288,"longitud":-3.897513},{"municipio":"FRESNEDA DE LA SIERRA TIRÓN","latitud":42.314386,"longitud":-3.136604},{"municipio":"FRESNEÑA","latitud":42.414131,"longitud":-3.134692},{"municipio":"FRÍAS","latitud":42.760785,"longitud":-3.293395},{"municipio":"FUENTEBUREBA","latitud":42.633797,"longitud":-3.234478},{"municipio":"FUENTELCÉSPED","latitud":41.591514,"longitud":-3.640806},{"municipio":"FUENTELISENDO","latitud":41.623606,"longitud":-3.901042},{"municipio":"FUENTEMOLINOS","latitud":41.604822,"longitud":-3.849465},{"municipio":"FUENTESPINA","latitud":41.631349,"longitud":-3.683701},{"municipio":"GUMIEL DE IZÁN","latitud":41.773345,"longitud":-3.688214},{"municipio":"HONTANAS","latitud":42.31242,"longitud":-4.044546},{"municipio":"HONTORIA DE LA CANTERA","latitud":42.189058,"longitud":-3.643288},{"municipio":"HONTORIA DE VALDEARADOS","latitud":41.743167,"longitud":-3.520242},{"municipio":"HORTIGÜELA","latitud":42.068702,"longitud":-3.427092},{"municipio":"HUERTA DE ARRIBA","latitud":42.11675,"longitud":-3.082353},{"municipio":"HUMADA","latitud":42.668685,"longitud":-4.083744},{"municipio":"IBEAS DE JUARROS","latitud":42.330328,"longitud":-3.536577},{"municipio":"ISAR","latitud":42.361594,"longitud":-3.929085},{"municipio":"JARAMILLO DE LA FUENTE","latitud":42.115902,"longitud":-3.313397},{"municipio":"JARAMILLO QUEMADO","latitud":42.084241,"longitud":-3.360395},{"municipio":"JUNTA DE TRASLALOMA","latitud":43.041237,"longitud":-3.389253},{"municipio":"LA PUEBLA DE ARGANZÓN","latitud":42.766841,"longitud":-2.83136},{"municipio":"LA SEQUERA DE HAZA","latitud":41.56293,"longitud":-3.817123},{"municipio":"LA VID DE BUREBA","latitud":42.631452,"longitud":-3.311597},{"municipio":"LA VID Y BARRIOS","latitud":41.628684,"longitud":-3.487962},{"municipio":"LAS HORMAZAS","latitud":42.525501,"longitud":-3.929074},{"municipio":"LLANO DE BUREBA","latitud":42.624939,"longitud":-3.45744},{"municipio":"LOS BARRIOS DE BUREBA","latitud":42.64604,"longitud":-3.391597},{"municipio":"MADRIGAL DEL MONTE","latitud":42.144064,"longitud":-3.675993},{"municipio":"MAMBRILLA DE CASTREJÓN","latitud":41.665996,"longitud":-3.985356},{"municipio":"MANCILES","latitud":42.455801,"longitud":-3.94507},{"municipio":"MERINDAD DE SOTOSCUEVA","latitud":43.028253,"longitud":-3.626808},{"municipio":"MIRANDA DE EBRO","latitud":42.680521,"longitud":-2.952396},{"municipio":"MONASTERIO DE LA SIERRA","latitud":42.050868,"longitud":-3.193746},{"municipio":"MONTERRUBIO DE LA DEMANDA","latitud":42.149598,"longitud":-3.112652},{"municipio":"NAVAS DE BUREBA","latitud":42.682345,"longitud":-3.327205},{"municipio":"NEBREDA","latitud":41.968922,"longitud":-3.634746},{"municipio":"NEILA","latitud":42.060263,"longitud":-2.996471},{"municipio":"OÑA","latitud":42.734305,"longitud":-3.411769},{"municipio":"ORBANEJA RIOPICO","latitud":42.361152,"longitud":-3.585219},{"municipio":"PALACIOS DE RIOPISUERGA","latitud":42.343614,"longitud":-4.256606},{"municipio":"PALAZUELOS DE MUÑÓ","latitud":42.198079,"longitud":-3.989669},{"municipio":"PANCORBO","latitud":42.635028,"longitud":-3.109856},{"municipio":"PEÑARANDA DE DUERO","latitud":41.688537,"longitud":-3.479138},{"municipio":"PINILLA DE LOS BARRUECOS","latitud":41.918199,"longitud":-3.304483},{"municipio":"PINILLA DE LOS MOROS","latitud":42.068124,"longitud":-3.328876},{"municipio":"PRESENCIO","latitud":42.186635,"longitud":-3.902904},{"municipio":"QUEMADA","latitud":41.700657,"longitud":-3.576387},{"municipio":"QUINTANABUREBA","latitud":42.586767,"longitud":-3.366316},{"municipio":"QUINTANAPALLA","latitud":42.408823,"longitud":-3.534863},{"municipio":"QUINTANAVIDES","latitud":42.478929,"longitud":-3.424257},{"municipio":"QUINTANILLA DE LA MATA","latitud":41.988344,"longitud":-3.768689},{"municipio":"RABANERA DEL PINAR","latitud":41.892791,"longitud":-3.196583},{"municipio":"REGUMIEL DE LA SIERRA","latitud":41.95799,"longitud":-2.985016},{"municipio":"REVILLA VALLEJERA","latitud":42.146759,"longitud":-4.134099},{"municipio":"RIOCAVADO DE LA SIERRA","latitud":42.153986,"longitud":-3.197992},{"municipio":"VILLASILA DE VALDAVIA","latitud":42.53193,"longitud":-4.55906},{"municipio":"VILLERÍAS DE CAMPOS","latitud":41.944798,"longitud":-4.857862},{"municipio":"VILLOVIECO","latitud":42.29648,"longitud":-4.471599},{"municipio":"AHIGAL DE LOS ACEITEROS","latitud":40.872295,"longitud":-6.746893},{"municipio":"ALDEARRODRIGO","latitud":41.110365,"longitud":-5.806225},{"municipio":"ARCEDIANO","latitud":41.092458,"longitud":-5.560927},{"municipio":"BARCEO","latitud":41.060556,"longitud":-6.452808},{"municipio":"CANTALAPIEDRA","latitud":41.125488,"longitud":-5.183586},{"municipio":"CARPIO DE AZABA","latitud":40.595867,"longitud":-6.646795},{"municipio":"EL CUBO DE DON SANCHO","latitud":40.892508,"longitud":-6.305649},{"municipio":"ENCINASOLA DE LOS COMENDADORES","latitud":41.031523,"longitud":-6.531365},{"municipio":"ENDRINAL","latitud":40.590046,"longitud":-5.804259},{"municipio":"FORFOLEDA","latitud":41.097063,"longitud":-5.7487},{"municipio":"FRADES DE LA SIERRA","latitud":40.656584,"longitud":-5.783688},{"municipio":"FRESNEDOSO","latitud":40.436275,"longitud":-5.709442},{"municipio":"GAJATES","latitud":40.78246,"longitud":-5.36613},{"municipio":"GALISANCHO","latitud":40.743889,"longitud":-5.554121},{"municipio":"GARCIHERNÁNDEZ","latitud":40.861324,"longitud":-5.434747},{"municipio":"GOLPEJAS","latitud":40.999563,"longitud":-5.90825},{"municipio":"GUADRAMIRO","latitud":41.016816,"longitud":-6.493611},{"municipio":"GUIJO DE ÁVILA","latitud":40.530696,"longitud":-5.639617},{"municipio":"HERGUIJUELA DE LA SIERRA","latitud":40.445536,"longitud":-6.073537},{"municipio":"HINOJOSA DE DUERO","latitud":40.985442,"longitud":-6.796383},{"municipio":"HORCAJO DE MONTEMAYOR","latitud":40.42155,"longitud":-5.894345},{"municipio":"LA FREGENEDA","latitud":40.988114,"longitud":-6.866298},{"municipio":"LA HOYA","latitud":40.406872,"longitud":-5.699542},{"municipio":"LA MAYA","latitud":40.686983,"longitud":-5.613511},{"municipio":"LA ORBADA","latitud":41.102156,"longitud":-5.482918},{"municipio":"MEMBRIBE DE LA SIERRA","latitud":40.690941,"longitud":-5.806229},{"municipio":"MIRANDA DEL CASTAÑAR","latitud":40.484767,"longitud":-6.001082},{"municipio":"MOGARRAZ","latitud":40.492175,"longitud":-6.052802},{"municipio":"MORÍÑIGO","latitud":40.970195,"longitud":-5.413756},{"municipio":"NAVA DE FRANCIA","latitud":40.535564,"longitud":-6.116042},{"municipio":"NAVAMORALES","latitud":40.477154,"longitud":-5.477873},{"municipio":"PEDRAZA DE ALBA","latitud":40.754182,"longitud":-5.375053},{"municipio":"PEÑARANDA DE BRACAMONTE","latitud":40.901737,"longitud":-5.200546},{"municipio":"PEÑARANDILLA","latitud":40.883392,"longitud":-5.393448},{"municipio":"PINEDAS","latitud":40.445157,"longitud":-5.960495},{"municipio":"PUENTE DEL CONGOSTO","latitud":40.491453,"longitud":-5.526749},{"municipio":"SAN MARTÍN DEL CASTAÑAR","latitud":40.5214,"longitud":-6.06376},{"municipio":"SAN MIGUEL DE VALERO","latitud":40.543476,"longitud":-5.921316},{"municipio":"SANTA MARTA DE TORMES","latitud":40.949683,"longitud":-5.631074},{"municipio":"SARDÓN DE LOS FRAILES","latitud":41.213967,"longitud":-6.270565},{"municipio":"TARAZONA DE GUAREÑA","latitud":41.171954,"longitud":-5.251454},{"municipio":"TENEBRÓN","latitud":40.624347,"longitud":-6.355422},{"municipio":"VALDECARROS","latitud":40.77018,"longitud":-5.423073},{"municipio":"VALDEHIJADEROS","latitud":40.418602,"longitud":-5.848434},{"municipio":"VALERO","latitud":40.534885,"longitud":-5.942157},{"municipio":"VILLAMAYOR","latitud":40.999644,"longitud":-5.696926},{"municipio":"VILLAR DE CIERVO","latitud":40.736876,"longitud":-6.739957},{"municipio":"CABALLAR","latitud":41.120192,"longitud":-3.964405},{"municipio":"CARBONERO EL MAYOR","latitud":41.122317,"longitud":-4.266111},{"municipio":"CASTRO DE FUENTIDUEÑA","latitud":41.42051,"longitud":-3.856453},{"municipio":"CUEVAS DE PROVANCO","latitud":41.541808,"longitud":-3.960905},{"municipio":"DURUELO","latitud":41.236853,"longitud":-3.647931},{"municipio":"FUENTE EL OLMO DE FUENTIDUEÑA","latitud":41.381202,"longitud":-4.000456},{"municipio":"HONTALBILLA","latitud":41.345883,"longitud":-4.121548},{"municipio":"HONTANARES DE ERESMA","latitud":40.981807,"longitud":-4.203476},{"municipio":"JUARROS DE RIOMOROS","latitud":40.946422,"longitud":-4.309412},{"municipio":"LASTRAS DE CUÉLLAR","latitud":41.296819,"longitud":-4.10659},{"municipio":"MADERUELO","latitud":41.487233,"longitud":-3.521901},{"municipio":"NAVAFRÍA","latitud":41.057086,"longitud":-3.824568},{"municipio":"NAVARES DE AYUSO","latitud":41.37275,"longitud":-3.706673},{"municipio":"PEDRAZA","latitud":41.128203,"longitud":-3.810887},{"municipio":"REAL SITIO DE SAN ILDEFONSO","latitud":40.897628,"longitud":-4.004759},{"municipio":"REBOLLO","latitud":41.192359,"longitud":-3.856802},{"municipio":"REMONDO","latitud":41.341706,"longitud":-4.483361},{"municipio":"RIAGUAS DE SAN BARTOLOMÉ","latitud":41.426673,"longitud":-3.489892},{"municipio":"RIAZA","latitud":41.279741,"longitud":-3.477249},{"municipio":"RIBOTA","latitud":41.365788,"longitud":-3.429448},{"municipio":"RIOFRÍO DE RIAZA","latitud":41.247955,"longitud":-3.449472},{"municipio":"RODA DE ERESMA","latitud":41.027843,"longitud":-4.181177},{"municipio":"SAN CRISTÓBAL DE LA VEGA","latitud":41.112964,"longitud":-4.646903},{"municipio":"SAN MARTÍN Y MUDRIÁN","latitud":41.223228,"longitud":-4.331848},{"municipio":"SANTA MARÍA LA REAL DE NIEVA","latitud":41.070372,"longitud":-4.406482},{"municipio":"SANTA MARTA DEL CERRO","latitud":41.217864,"longitud":-3.685323},{"municipio":"SANTIUSTE DE SAN JUAN BAUTISTA","latitud":41.157174,"longitud":-4.572056},{"municipio":"SANTO TOMÉ DEL PUERTO","latitud":41.194376,"longitud":-3.577427},{"municipio":"SEQUERA DE FRESNO","latitud":41.367311,"longitud":-3.546771},{"municipio":"SOTOSALBOS","latitud":41.034847,"longitud":-3.942982},{"municipio":"TORREADRADA","latitud":41.443576,"longitud":-3.840762},{"municipio":"TORRECABALLEROS","latitud":40.993056,"longitud":-4.02467},{"municipio":"TRESCASAS","latitud":40.964193,"longitud":-4.035857},{"municipio":"TURÉGANO","latitud":41.156184,"longitud":-4.00692},{"municipio":"VALDEVACAS Y GUIJAR","latitud":41.145596,"longitud":-3.911057},{"municipio":"VALTIENDAS","latitud":41.478474,"longitud":-3.917103},{"municipio":"VILLACASTÍN","latitud":40.781561,"longitud":-4.412105},{"municipio":"ZARZUELA DEL PINAR","latitud":41.258641,"longitud":-4.184717},{"municipio":"ADRADAS","latitud":41.351067,"longitud":-2.47378},{"municipio":"ÁGREDA","latitud":41.85517,"longitud":-1.919656},{"municipio":"ALCONABA","latitud":41.724146,"longitud":-2.385694},{"municipio":"ALDEHUELA DE PERIÁÑEZ","latitud":41.808304,"longitud":-2.306097},{"municipio":"ALENTISQUE","latitud":41.420553,"longitud":-2.331964},{"municipio":"ALIUD","latitud":41.654289,"longitud":-2.252388},{"municipio":"ALMARZA","latitud":41.947814,"longitud":-2.468533},{"municipio":"ARANCÓN","latitud":41.79938,"longitud":-2.280158},{"municipio":"BARCONES","latitud":41.291637,"longitud":-2.816464},{"municipio":"BAYUBAS DE ARRIBA","latitud":41.557858,"longitud":-2.887809},{"municipio":"BUITRAGO","latitud":41.847282,"longitud":-2.408343},{"municipio":"CALATAÑAZOR","latitud":41.698348,"longitud":-2.818858},{"municipio":"CAÑAMAQUE","latitud":41.444313,"longitud":-2.238908},{"municipio":"CERBÓN","latitud":41.929968,"longitud":-2.171765},{"municipio":"CIDONES","latitud":41.815,"longitud":-2.640337},{"municipio":"CIRIA","latitud":41.61899,"longitud":-1.965548},{"municipio":"CUBO DE LA SOLANA","latitud":41.602535,"longitud":-2.422862},{"municipio":"DURUELO DE LA SIERRA","latitud":41.955862,"longitud":-2.931237},{"municipio":"EL ROYO","latitud":41.908542,"longitud":-2.644826},{"municipio":"ESPEJA DE SAN MARCELINO","latitud":41.802153,"longitud":-3.22091},{"municipio":"FUENTECAMBRÓN","latitud":41.504957,"longitud":-3.328804},{"municipio":"FUENTELSAZ DE SORIA","latitud":41.867362,"longitud":-2.414267},{"municipio":"FUENTESTRÚN","latitud":41.874567,"longitud":-2.081702},{"municipio":"GARRAY","latitud":41.815345,"longitud":-2.446431},{"municipio":"GORMAZ","latitud":41.493797,"longitud":-3.007829},{"municipio":"HERRERA DE SORIA","latitud":41.763005,"longitud":-3.012166},{"municipio":"LA LOSILLA","latitud":41.872968,"longitud":-2.277464},{"municipio":"MAJÁN","latitud":41.468809,"longitud":-2.303553},{"municipio":"MEDINACELI","latitud":41.171735,"longitud":-2.434771},{"municipio":"MIÑO DE MEDINACELI","latitud":41.189623,"longitud":-2.519507},{"municipio":"MOMBLONA","latitud":41.444416,"longitud":-2.346359},{"municipio":"MONTEJO DE TIERMES","latitud":41.368546,"longitud":-3.199736},{"municipio":"MORÓN DE ALMAZÁN","latitud":41.414934,"longitud":-2.413089},{"municipio":"NAFRÍA DE UCERO","latitud":41.721902,"longitud":-3.094882},{"municipio":"NARROS","latitud":41.847573,"longitud":-2.294205},{"municipio":"NOLAY","latitud":41.527162,"longitud":-2.351879},{"municipio":"ÓLVEGA","latitud":41.780458,"longitud":-1.982666},{"municipio":"ONCALA","latitud":41.970101,"longitud":-2.313454},{"municipio":"PINILLA DEL CAMPO","latitud":41.716784,"longitud":-2.084951},{"municipio":"QUINTANA REDONDA","latitud":41.640181,"longitud":-2.615064},{"municipio":"REZNOS","latitud":41.591228,"longitud":-2.028237},{"municipio":"RIOSECO DE SORIA","latitud":41.639753,"longitud":-2.841307},{"municipio":"ROLLAMIENTA","latitud":41.926391,"longitud":-2.531415},{"municipio":"SAN ESTEBAN DE GORMAZ","latitud":41.575287,"longitud":-3.208325},{"municipio":"SAN FELICES","latitud":41.937342,"longitud":-2.026953},{"municipio":"SAN LEONARDO DE YAGÜE","latitud":41.829305,"longitud":-3.066742},{"municipio":"SANTA MARÍA DE LAS HOYAS","latitud":41.770075,"longitud":-3.144148},{"municipio":"SUELLACABRAS","latitud":41.852456,"longitud":-2.223243},{"municipio":"TORREBLACOS","latitud":41.670269,"longitud":-2.87834},{"municipio":"TRÉVAGO","latitud":41.873964,"longitud":-2.102305},{"municipio":"VADILLO","latitud":41.791865,"longitud":-3.008573},{"municipio":"VALDEGEÑA","latitud":41.817041,"longitud":-2.175475},{"municipio":"VALDEMALUQUE","latitud":41.674636,"longitud":-3.046881},{"municipio":"VELILLA DE LA SIERRA","latitud":41.809752,"longitud":-2.403404},{"municipio":"VILLASAYAS","latitud":41.353106,"longitud":-2.610282},{"municipio":"VIZMANOS","latitud":42.024339,"longitud":-2.408754},{"municipio":"VOZMEDIANO","latitud":41.837776,"longitud":-1.856273},{"municipio":"YANGUAS","latitud":42.101758,"longitud":-2.339304},{"municipio":"YELO","latitud":41.210319,"longitud":-2.527312},{"municipio":"ADALIA","latitud":41.650252,"longitud":-5.120514},{"municipio":"AGUASAL","latitud":41.274531,"longitud":-4.652536},{"municipio":"AGUILAR DE CAMPOS","latitud":41.984857,"longitud":-5.179385},{"municipio":"ALDEAMAYOR DE SAN MARTÍN","latitud":41.511747,"longitud":-4.639667},{"municipio":"ARROYO DE LA ENCOMIENDA","latitud":41.609108,"longitud":-4.797806},{"municipio":"BARCIAL DE LA LOMA","latitud":41.951994,"longitud":-5.282214},{"municipio":"BERRUECES","latitud":41.945744,"longitud":-5.097189},{"municipio":"BUSTILLO DE CHAVES","latitud":42.132833,"longitud":-5.09042},{"municipio":"CABEZÓN DE VALDERADUEY","latitud":42.167219,"longitud":-5.159357},{"municipio":"CAMPORREDONDO","latitud":41.473792,"longitud":-4.504557},{"municipio":"CASASOLA DE ARIÓN","latitud":41.579055,"longitud":-5.240581},{"municipio":"CASTRODEZA","latitud":41.648,"longitud":-4.958644},{"municipio":"CASTROMEMBIBRE","latitud":41.673873,"longitud":-5.305383},{"municipio":"CIGUÑUELA","latitud":41.6399,"longitud":-4.856846},{"municipio":"CISTÉRNIGA","latitud":41.612284,"longitud":-4.685702},{"municipio":"COGECES DE ÍSCAR","latitud":41.406704,"longitud":-4.546162},{"municipio":"CORCOS","latitud":41.811446,"longitud":-4.694451},{"municipio":"EL CAMPILLO","latitud":41.25718,"longitud":-5.013082},{"municipio":"FOMBELLIDA","latitud":41.763961,"longitud":-4.184191},{"municipio":"HORNILLOS DE ERESMA","latitud":41.366127,"longitud":-4.719939},{"municipio":"LA SECA","latitud":41.413979,"longitud":-4.90753},{"municipio":"MANZANILLO","latitud":41.585823,"longitud":-4.188587},{"municipio":"MARZALES","latitud":41.58754,"longitud":-5.133612},{"municipio":"MATAPOZUELOS","latitud":41.411466,"longitud":-4.790444},{"municipio":"MATILLA DE LOS CAÑOS","latitud":41.546542,"longitud":-4.966393},{"municipio":"MEDINA DEL CAMPO","latitud":41.307578,"longitud":-4.915187},{"municipio":"MELGAR DE ARRIBA","latitud":42.270503,"longitud":-5.091984},{"municipio":"MONTEALEGRE DE CAMPOS","latitud":41.902443,"longitud":-4.898492},{"municipio":"MOTA DEL MARQUÉS","latitud":41.632507,"longitud":-5.178853},{"municipio":"MURIEL","latitud":41.12209,"longitud":-4.842506},{"municipio":"OLMEDO","latitud":41.288881,"longitud":-4.684735},{"municipio":"PEÑAFLOR DE HORNIJA","latitud":41.711656,"longitud":-4.984002},{"municipio":"PESQUERA DE DUERO","latitud":41.641261,"longitud":-4.155937},{"municipio":"POLLOS","latitud":41.443478,"longitud":-5.125271},{"municipio":"POZALDEZ","latitud":41.371983,"longitud":-4.846038},{"municipio":"PURAS","latitud":41.182769,"longitud":-4.648377},{"municipio":"QUINTANILLA DE ARRIBA","latitud":41.620044,"longitud":-4.21663},{"municipio":"ROTURAS","latitud":41.667032,"longitud":-4.11838},{"municipio":"SALVADOR DE ZAPARDIEL","latitud":41.116022,"longitud":-4.875781},{"municipio":"SAN MIGUEL DEL ARROYO","latitud":41.442199,"longitud":-4.460903},{"municipio":"SAN PEDRO DE LATARCE","latitud":41.735356,"longitud":-5.326939},{"municipio":"SAN PELAYO","latitud":41.681384,"longitud":-5.034048},{"municipio":"SANTERVÁS DE CAMPOS","latitud":42.21716,"longitud":-5.100967},{"municipio":"SIETE IGLESIAS DE TRABANCOS","latitud":41.351575,"longitud":-5.185259},{"municipio":"TAMARIZ DE CAMPOS","latitud":41.974544,"longitud":-5.024572},{"municipio":"TIEDRA","latitud":41.652308,"longitud":-5.269345},{"municipio":"TORDESILLAS","latitud":41.502023,"longitud":-5.001276},{"municipio":"TUDELA DE DUERO","latitud":41.584008,"longitud":-4.58001},{"municipio":"URUEÑA","latitud":41.727749,"longitud":-5.202567},{"municipio":"VALBUENA DE DUERO","latitud":41.642469,"longitud":-4.292685},{"municipio":"VALDEARCOS DE LA VEGA","latitud":41.642407,"longitud":-4.048624},{"municipio":"VALDENEBRO DE LOS VALLES","latitud":41.855907,"longitud":-4.96906},{"municipio":"VALLADOLID","latitud":41.652328,"longitud":-4.723349},{"municipio":"VELILLA","latitud":41.557855,"longitud":-5.005444},{"municipio":"VIANA DE CEGA","latitud":41.529431,"longitud":-4.754222},{"municipio":"VILLABARUZ DE CAMPOS","latitud":42.010352,"longitud":-4.9953},{"municipio":"VILLABRÁGIMA","latitud":41.822891,"longitud":-5.117809},{"municipio":"VILLACARRALÓN","latitud":42.190792,"longitud":-5.043635},{"municipio":"VILLACID DE CAMPOS","latitud":42.081421,"longitud":-5.125034},{"municipio":"VILLAFRECHÓS","latitud":41.893601,"longitud":-5.218732},{"municipio":"VILLAGARCÍA DE CAMPOS","latitud":41.780862,"longitud":-5.192977},{"municipio":"VILLALAR DE LOS COMUNEROS","latitud":41.548974,"longitud":-5.137463},{"municipio":"VILLALBA DE LOS ALCORES","latitud":41.863127,"longitud":-4.861809},{"municipio":"VILLALBARBA","latitud":41.602948,"longitud":-5.213245},{"municipio":"VILLANUBLA","latitud":41.699577,"longitud":-4.841232},{"municipio":"VILLANUEVA DE LOS INFANTES","latitud":41.703252,"longitud":-4.48383},{"municipio":"VILLARMENTERO DE ESGUEVA","latitud":41.685773,"longitud":-4.547158},{"municipio":"VILLAVAQUERÍN","latitud":41.663152,"longitud":-4.462227},{"municipio":"VILLAVICENCIO DE LOS CABALLEROS","latitud":42.055911,"longitud":-5.237536},{"municipio":"VILORIA","latitud":41.445504,"longitud":-4.382328},{"municipio":"ALBA DE TORMES","latitud":40.827436,"longitud":-5.512112},{"municipio":"ALDEADÁVILA DE LA RIBERA","latitud":41.218461,"longitud":-6.619562},{"municipio":"ALDEASECA DE LA FRONTERA","latitud":40.941953,"longitud":-5.207297},{"municipio":"BERROCAL DE HUEBRA","latitud":40.718921,"longitud":-6.000634},{"municipio":"VILLAMERIEL","latitud":42.527614,"longitud":-4.47622},{"municipio":"VILLAMUERA DE LA CUEZA","latitud":42.259731,"longitud":-4.689011},{"municipio":"VILLANUÑO DE VALDAVIA","latitud":42.508884,"longitud":-4.517492},{"municipio":"VILLAPROVEDO","latitud":42.518321,"longitud":-4.396982},{"municipio":"VILLARRABÉ","latitud":42.419949,"longitud":-4.782605},{"municipio":"ABUSEJO","latitud":40.709744,"longitud":-6.142289},{"municipio":"ALCONADA","latitud":40.910879,"longitud":-5.36395},{"municipio":"ALDEALENGUA","latitud":40.982274,"longitud":-5.549634},{"municipio":"BELEÑA","latitud":40.750987,"longitud":-5.627483},{"municipio":"BOGAJO","latitud":40.906874,"longitud":-6.530994},{"municipio":"BÓVEDA DEL RÍO ALMAR","latitud":40.857238,"longitud":-5.211007},{"municipio":"CABEZABELLOSA DE LA CALZADA","latitud":41.043715,"longitud":-5.488905},{"municipio":"CABRERIZOS","latitud":40.977859,"longitud":-5.608448},{"municipio":"CALZADA DE DON DIEGO","latitud":40.905781,"longitud":-5.902008},{"municipio":"CANDELARIO","latitud":40.365275,"longitud":-5.741664},{"municipio":"CERECEDA DE LA SIERRA","latitud":40.566466,"longitud":-6.091269},{"municipio":"CHAGARCÍA MEDIANERO","latitud":40.649707,"longitud":-5.382281},{"municipio":"DIOS LE GUARDE","latitud":40.642029,"longitud":-6.312029},{"municipio":"DOÑINOS DE SALAMANCA","latitud":40.960106,"longitud":-5.746404},{"municipio":"ÉJEME","latitud":40.766507,"longitud":-5.539823},{"municipio":"EL ARCO","latitud":41.109875,"longitud":-5.824781},{"municipio":"EL CAMPO DE PEÑARANDA","latitud":40.984921,"longitud":-5.257393},